0,municipio,ibge,latitude,longitude,mwh,ano
1,agua Santa,4300059,-28.167200000000,-52.030999999990,2025,2007
2,Agudo,4300109,-29.644700000000,-53.251500000000,55546,2007
3,Ajuricaba,4300208,-28.234200000000,-53.775700000000,4378,2007
4,Alecrim,4300307,-27.657900000000,-54.764899999990,2829,2007
5,Alegrete,4300406,-29.790199999990,-55.794899999990,159615,2007
6,Alegria,4300455,-27.834499999990,-54.055700000000,2651,2007
7,Alpestre,4300505,-27.250200000000,-53.034100000000,8238,2007
8,Alto Feliz,4300570,-29.391900000000,-51.312300000000,4022,2007
9,Alvorada,4300604,-29.991399999990,-51.080900000000,146585,2007
10,Amaral Ferrador,4300638,-30.875599999990,-52.250999999990,3205,2007
11,Ametista do Sul,4300646,-27.360700000000,-53.183000000000,11959,2007
12,Andra da Rocha,4300661,-28.628299999990,-51.579700000000,2522,2007
13,Anta Gorda,4300703,-28.969799999990,-52.010199999990,10867,2007
14,Antanio Prado,4300802,-28.856500000000,-51.288300000000,36527,2007
15,Arambara,4300851,-30.909300000000,-51.504600000000,9324,2007
16,Ararica,4300877,-29.616800000000,-50.929099999990,9199,2007
17,Aratiba,4300901,-27.397800000000,-52.297499999990,9614,2007
18,Arroio do Meio,4301008,-29.401399999990,-51.955700000000,79347,2007
19,Arroio do Padre,4301073,-31.431600000000,-52.417099999990,2423,2007
20,Arroio do Sal,4301057,-29.543900000000,-49.889499999990,17551,2007
21,Arroio do Tigre,4301206,-29.334800000000,-53.096600000000,20400,2007
22,Arroio dos Ratos,4301107,-30.087500000000,-51.727499999990,20222,2007
23,Arroio Grande,4301305,-32.232700000000,-53.086199999990,34148,2007
24,Arvorezinha,4301404,-28.873699999990,-52.178100000000,13030,2007
25,Augusto Pestana,4301503,-28.517299999990,-53.988300000000,3972,2007
26,aurea,4301552,-27.693600000000,-52.050500000000,3648,2007
27,Baga,4301602,-31.329699999990,-54.099899999990,127639,2007
28,Balneario Pinhal,4301636,-30.241900000000,-50.233600000000,18144,2007
29,Barao,4301651,-29.372500000000,-51.494900000000,877,2007
30,Barao de Cotegipe,4301701,-27.620799999990,-52.379800000000,7280,2007
31,Barao do Triunfo,4301750,-30.389099999990,-51.738399999990,1663,2007
32,Barra do Guarita,4301859,-27.192699999990,-53.710900000000,2234,2007
33,Barra do Quaraa,4301875,-30.202900000000,-57.549700000000,22991,2007
34,Barra do Ribeiro,4301909,-30.293900000000,-51.301400000000,17784,2007
35,Barra do Rio Azul,4301925,-27.406800000000,-52.408400000000,2262,2007
36,Barra Funda,4301958,-27.920500000000,-53.039099999990,6023,2007
37,Barracao,4301800,-27.673900000000,-51.458599999990,5269,2007
38,Barros Cassal,4302006,-29.094700000000,-52.583599999990,8116,2007
39,Benjamin Constant do Sul,4302055,-27.508600000000,-52.599499999990,1241,2007
40,Bento Gonaalves,4302105,-29.166200000000,-51.516500000000,339746,2007
41,Boa Vista das Missaes,4302154,-27.667100000000,-53.310200000000,69,2007
42,Boa Vista do Burica,4302204,-27.669300000000,-54.108199999990,9612,2007
43,Boa Vista do Cadeado,4302220,-28.571600000000,-53.813800000000,1571,2007
44,Boa Vista do Sul,4302253,-29.354399999990,-51.668700000000,4298,2007
45,Bom Jesus,4302303,-28.669699999990,-50.429499999990,10715,2007
46,Bom Princapio,4302352,-29.485600000000,-51.354799999990,39829,2007
47,Bom Progresso,4302378,-27.539899999990,-53.871600000000,2508,2007
48,Bom Retiro do Sul,4302402,-29.608599999990,-51.946399999990,20758,2007
49,Boqueirao do Leao,4302451,-29.304600000000,-52.428400000000,783,2007
50,Bossoroca,4302501,-28.729099999990,-54.903500000000,188,2007
51,Bozano,4302584,-28.367460000000,-53.772239999990,11,2007
52,Braga,4302600,-27.617300000000,-53.740499999990,2779,2007
53,Brochier,4302659,-29.550100000000,-51.594499999990,6605,2007
54,Butia,4302709,-30.117899999990,-51.960099999990,31209,2007
55,Caaapava do Sul,4302808,-30.514399999990,-53.482700000000,50666,2007
56,Cacequi,4302907,-29.888300000000,-54.822000000000,15353,2007
57,Cachoeira do Sul,4303004,-30.033000000000,-52.892800000000,126652,2007
58,Cachoeirinha,4303103,-29.947199999990,-51.101599999990,281750,2007
59,Cacique Doble,4303202,-27.766999999990,-51.659700000000,3604,2007
60,Caiaara,4303400,-27.279100000000,-53.425699999990,4213,2007
61,Camaqua,4303509,-30.848900000000,-51.804299999990,135065,2007
62,Camargo,4303558,-28.588000000000,-52.200299999990,3960,2007
63,Cambara do Sul,4303608,-29.047400000000,-50.146500000000,13581,2007
64,Campestre da Serra,4303673,-28.792600000000,-51.094099999990,4039,2007
65,Campina das Missaes,4303707,-27.988800000000,-54.841700000000,2829,2007
66,Campinas do Sul,4303806,-27.717400000000,-52.624800000000,6065,2007
67,Campo Bom,4303905,-29.674700000000,-51.060600000000,187092,2007
68,Campo Novo,4304002,-27.679200000000,-53.805199999990,6935,2007
69,Candelaria,4304200,-29.668399999990,-52.789499999990,44348,2007
70,Candido Godai,4304309,-27.951499999990,-54.751700000000,10117,2007
71,Candiota,4304358,-31.551500000000,-53.677300000000,59869,2007
72,Canela,4304408,-29.356000000000,-50.811900000000,74567,2007
73,Canguau,4304507,-31.396000000000,-52.678199999990,35381,2007
74,Canoas,4304606,-29.912800000000,-51.185699999990,606592,2007
75,Capao Bonito do Sul,4304622,-29.764199999990,-50.028199999990,2094,2007
76,Capao da Canoa,4304630,-29.639700000000,-49.959899999990,77160,2007
77,Capao do Cipa,4304655,-28.904000000000,-54.700000000000,3166,2007
78,Capao do Leao,4304663,-31.756499999990,-52.488900000000,52463,2007
79,Capela de Santana,4304689,-29.696100000000,-51.328000000000,12177,2007
80,Capitao,4304697,-29.267399999990,-51.985300000000,111,2007
81,Capivari do Sul,4304671,-30.138200000000,-50.515099999990,21812,2007
82,Caraa,4304713,-29.786899999990,-50.431600000000,6938,2007
83,Carazinho,4304705,-28.295800000000,-52.793300000000,146512,2007
84,Carlos Barbosa,4304804,-29.296900000000,-51.502899999990,138565,2007
85,Carlos Gomes,4304853,-27.716699999990,-51.912100000000,1283,2007
86,Casca,4304903,-28.560500000000,-51.981499999990,23054,2007
87,Caseiros,4304952,-28.258199999990,-51.686100000000,2720,2007
88,Catuape,4305009,-28.255400000000,-54.013199999990,6671,2007
89,Caxias do Sul,4305108,-29.162900000000,-51.179200000000,1358043,2007
90,Centenario,4305116,-27.761600000000,-51.998399999990,2320,2007
91,Cerrito,4305124,-31.841899999990,-52.800400000000,5537,2007
92,Cerro Branco,4305132,-29.657000000000,-52.940600000000,100,2007
93,Cerro Grande,4305157,-27.610600000000,-53.167200000000,72,2007
94,Cerro Grande do Sul,4305173,-30.590499999990,-51.741799999990,6609,2007
95,Cerro Largo,4305207,-28.146200000000,-54.742800000000,30830,2007
96,Charqueadas,4305355,-29.962500000000,-51.628900000000,403437,2007
97,Charrua,4305371,-27.949300000000,-52.015000000000,954,2007
98,Chiapetta,4305405,-27.922999999990,-53.941899999990,2712,2007
99,Chua,4305439,-33.686599999990,-53.459400000000,8190,2007
100,Chuvisca,4305447,-30.750399999990,-51.973700000000,3631,2007
101,Cidreira,4305454,-30.160399999990,-50.233800000000,25309,2007
102,Ciraaco,4305504,-28.341899999990,-51.874099999990,9760,2007
103,Colinas,4305587,-29.381499999990,-51.852600000000,4226,2007
104,Constantina,4305801,-27.731999999990,-52.993800000000,10899,2007
105,Coqueiro Baixo,4305835,-29.172200000000,-52.098900000000,1036,2007
106,Coronel Bicaco,4305900,-27.719700000000,-53.702199999990,6992,2007
107,Coronel Pilar,4305934,-29.268400000000,-51.687899999990,1307,2007
108,Cotipora,4305959,-28.989100000000,-51.697099999990,13338,2007
109,Coxilha,4305975,-28.128000000000,-52.302300000000,3223,2007
110,Crissiumal,4306007,-27.499900000000,-54.099400000000,17920,2007
111,Cristal,4306056,-31.004600000000,-52.043599999990,8943,2007
112,Cristal do Sul,4306072,-27.452000000000,-53.242199999990,263,2007
113,Cruz Alta,4306106,-28.645000000000,-53.604799999990,102650,2007
114,Cruzaltense,4306130,-27.664400000000,-52.649200000000,3276,2007
115,Cruzeiro do Sul,4306205,-29.514800000000,-51.992800000000,26568,2007
116,David Canabarro,4306304,-28.384899999990,-51.848199999990,2720,2007
117,Derrubadas,4306320,-27.264199999990,-53.864500000000,2883,2007
118,Dezesseis de Novembro,4306353,-28.219000000000,-55.061700000000,2623,2007
119,Dilermando de Aguiar,4306379,-29.705400000000,-54.212200000000,3842,2007
120,Dois Irmaos,4306403,-29.583600000000,-51.089799999990,59806,2007
121,Dois Irmaos das Missaes,4306429,-27.662099999990,-53.530400000000,16237,2007
122,Dois Lajeados,4306452,-28.983000000000,-51.839599999990,20224,2007
123,Dom Feliciano,4306502,-30.700399999990,-52.102600000000,8615,2007
124,Dom Pedrito,4306601,-30.975600000000,-54.669400000000,58869,2007
125,Dom Pedro de Alcantara,4306551,-29.363900000000,-49.853000000000,3605,2007
126,Doutor Mauracio Cardoso,4306734,-27.510300000000,-54.357799999990,5687,2007
127,Doutor Ricardo,4306759,-29.084000000000,-51.997100000000,3548,2007
128,Eldorado do Sul,4306767,-30.084700000000,-51.618699999990,70396,2007
129,Encantado,4306809,-29.235099999990,-51.870300000000,62747,2007
130,Encruzilhada do Sul,4306908,-30.542999999990,-52.520400000000,21038,2007
131,Engenho Velho,4306924,-27.706000000000,-52.914499999990,1541,2007
132,Entre Rios do Sul,4306957,-27.529800000000,-52.734699999990,3163,2007
133,Entre-ijuas,4306932,-28.368600000000,-54.268599999990,9656,2007
134,Erebango,4306973,-27.854399999990,-52.300500000000,3792,2007
135,Erechim,4307005,-27.636399999990,-52.269700000000,204882,2007
136,Ernestina,4307054,-28.497699999990,-52.583599999990,3491,2007
137,Erval Grande,4307203,-27.392600000000,-52.573999999990,5584,2007
138,Erval Seco,4307302,-27.544300000000,-53.500500000000,6094,2007
139,Esmeralda,4307401,-28.051800000000,-51.193300000000,3350,2007
140,Esperanaa do Sul,4307450,-27.360299999990,-53.989100000000,2923,2007
141,Espumoso,4307500,-28.728600000000,-52.846100000000,15289,2007
142,Estaaao,4307559,-27.913499999990,-52.263500000000,20232,2007
143,Estancia Velha,4307609,-29.653500000000,-51.184300000000,117333,2007
144,Esteio,4307708,-29.852000000000,-51.184100000000,230459,2007
145,Estrela,4307807,-29.501600000000,-51.960500000000,70761,2007
146,Estrela Velha,4307815,-29.171299999990,-53.163899999990,42,2007
147,Euganio de Castro,4307831,-28.531500000000,-54.150599999990,3389,2007
148,Fagundes Varela,4307864,-28.879400000000,-51.701400000000,5412,2007
149,Farroupilha,4307906,-29.222700000000,-51.341900000000,175920,2007
150,Faxinal do Soturno,4308003,-29.578800000000,-53.448399999990,35902,2007
151,Faxinalzinho,4308052,-27.423800000000,-52.678899999990,2093,2007
152,Fazenda Vilanova,4308078,-29.588500000000,-51.821700000000,12712,2007
153,Feliz,4308102,-29.452700000000,-51.303199999990,27810,2007
154,Flores da Cunha,4308201,-29.026199999990,-51.187500000000,73864,2007
155,Formigueiro,4308409,-30.003499999990,-53.495899999990,8158,2007
156,Fortaleza dos Valos,4308458,-28.798600000000,-53.224899999990,3007,2007
157,Frederico Westphalen,4308508,-27.358599999990,-53.395800000000,52611,2007
158,Garibaldi,4308607,-29.259000000000,-51.535200000000,117291,2007
159,Garruchos,4308656,-28.194400000000,-55.638300000000,2999,2007
160,Gaurama,4308706,-27.585599999990,-52.091500000000,11748,2007
161,General Camara,4308805,-29.903199999990,-51.761200000000,6875,2007
162,Gentil,4308854,-28.431600000000,-52.033700000000,1017,2007
163,Getalio Vargas,4308904,-27.891100000000,-52.229399999990,24545,2007
164,Girua,4309001,-28.029699999990,-54.351700000000,23577,2007
165,Glorinha,4309050,-29.879799999990,-50.773400000000,10213,2007
166,Gramado,4309100,-29.373300000000,-50.876199999990,78875,2007
167,Gramado dos Loureiros,4309126,-27.442900000000,-52.914900000000,780,2007
168,Gramado Xavier,4309159,-29.270600000000,-52.579500000000,1035,2007
169,Gravataa,4309209,-29.941299999990,-50.986899999990,735072,2007
170,Guabiju,4309258,-28.542100000000,-51.694800000000,2789,2007
171,Guaaba,4309308,-30.108599999990,-51.323300000000,386443,2007
172,Guapora,4309407,-28.839900000000,-51.889499999990,42072,2007
173,Guarani das Missaes,4309506,-28.149100000000,-54.562899999990,12716,2007
174,Harmonia,4309555,-29.545600000000,-51.418500000000,8912,2007
175,Herval,4307104,-32.024000000000,-53.394399999990,4871,2007
176,Herveiras,4309571,-29.455200000000,-52.655299999990,1961,2007
177,Horizontina,4309605,-27.628200000000,-54.305300000000,50775,2007
178,Hulha Negra,4309654,-31.406700000000,-53.866700000000,23772,2007
179,Humaita,4309704,-27.569099999990,-53.969499999990,7103,2007
180,Ibarama,4309753,-29.420300000000,-53.129500000000,3839,2007
181,Ibiraiaras,4309902,-28.374099999990,-51.637700000000,7852,2007
182,Ibirapuita,4309951,-28.624700000000,-52.515799999990,4172,2007
183,Ibiruba,4310009,-28.630199999990,-53.096100000000,42427,2007
184,Igrejinha,4310108,-29.569299999990,-50.791899999990,71771,2007
185,Ijua,4310207,-28.388100000000,-53.920000000000,88902,2007
186,Ilapolis,4310306,-28.928200000000,-52.125799999990,5053,2007
187,Imba,4310330,-29.975300000000,-50.128100000000,42118,2007
188,Imigrante,4310363,-29.350800000000,-51.774700000000,13093,2007
189,Independancia,4310405,-27.835400000000,-54.188600000000,5409,2007
190,Inhacora,4310413,-27.875200000000,-54.015000000000,1024,2007
191,Ipa,4310439,-28.817100000000,-51.285899999990,9299,2007
192,Ipiranga do Sul,4310462,-27.940400000000,-52.427100000000,2153,2007
193,Iraa,4310504,-27.195100000000,-53.254300000000,6493,2007
194,Itaara,4310538,-29.601299999990,-53.772500000000,7837,2007
195,Itacurubi,4310553,-28.791300000000,-55.244700000000,5335,2007
196,Itapuca,4310579,-28.776800000000,-52.169300000000,170,2007
197,Itaqui,4310603,-29.131000000000,-56.551499999990,129093,2007
198,Itati,4310652,-29.488320000000,-50.113579999990,2548,2007
199,Itatiba do Sul,4310702,-27.384599999990,-52.453800000000,3591,2007
200,Ivora,4310751,-29.523199999990,-53.584200000000,658,2007
201,Ivoti,4310801,-29.599499999990,-51.153300000000,50541,2007
202,Jacutinga,4310900,-27.729099999990,-52.537199999990,5172,2007
203,Jaguarao,4311007,-32.560400000000,-53.377000000000,36277,2007
204,Jaguari,4311106,-29.493600000000,-54.703000000000,14180,2007
205,Jaquirana,4311122,-28.881100000000,-50.363700000000,4437,2007
206,Jari,4311130,-29.292200000000,-54.223700000000,1012,2007
207,Jaia,4311155,-28.643500000000,-54.114100000000,5768,2007
208,Jalio de Castilhos,4311205,-29.229800000000,-53.677199999990,27964,2007
209,Lagoa Bonita do Sul,4311239,-29.488199999990,-53.013800000000,2833,2007
210,Lagoa dos Tras Cantos,4311270,-28.567599999990,-52.861800000000,1272,2007
211,Lagoa Vermelha,4311304,-28.209299999990,-51.524799999990,39087,2007
212,Lagoao,4311254,-29.234800000000,-52.799700000000,780,2007
213,Lajeado,4311403,-29.459099999990,-51.964399999990,423035,2007
214,Lajeado do Bugre,4311429,-27.691299999990,-53.181800000000,338,2007
215,Lavras do Sul,4311502,-30.807099999990,-53.893099999990,6931,2007
216,Liberato Salzano,4311601,-27.600999999990,-53.075299999990,4701,2007
217,Lindolfo Collor,4311627,-29.585899999990,-51.214100000000,19178,2007
218,Linha Nova,4311643,-29.467900000000,-51.200299999990,1773,2007
219,Maaambara,4311718,-29.144500000000,-56.067399999990,12477,2007
220,Machadinho,4311700,-27.566700000000,-51.666800000000,5383,2007
221,Mampituba,4311734,-29.213600000000,-49.931100000000,2038,2007
222,Manoel Viana,4311759,-29.585899999990,-55.484099999990,8503,2007
223,Maquina,4311775,-29.679800000000,-50.207900000000,11766,2007
224,Marata,4311791,-29.545700000000,-51.557299999990,3931,2007
225,Marau,4311809,-28.449800000000,-52.198599999990,166336,2007
226,Marcelino Ramos,4311908,-27.467600000000,-51.909500000000,8718,2007
227,Mariana Pimentel,4311981,-30.353100000000,-51.580300000000,3254,2007
228,Mariano Moro,4312005,-27.356800000000,-52.146700000000,2899,2007
229,Mata,4312104,-29.564900000000,-54.464100000000,5843,2007
230,Mato Leitao,4312153,-29.528500000000,-52.127800000000,7703,2007
231,Maximiliano de Almeida,4312203,-27.632500000000,-51.802100000000,4835,2007
232,Minas do Leao,4312252,-30.134599999990,-52.042299999990,9891,2007
233,Miraguaa,4312302,-27.497000000000,-53.689100000000,4970,2007
234,Montauri,4312351,-28.646200000000,-52.076700000000,1728,2007
235,Monte Alegre dos Campos,4312377,-28.680499999990,-50.783400000000,1817,2007
236,Monte Belo do Sul,4312385,-29.160699999990,-51.633299999990,7491,2007
237,Montenegro,4312401,-29.682400000000,-51.467900000000,175238,2007
238,Mormaao,4312427,-28.696800000000,-52.699900000000,1675,2007
239,Morrinhos do Sul,4312443,-29.357800000000,-49.932800000000,3682,2007
240,Morro Redondo,4312450,-31.588699999990,-52.626100000000,7958,2007
241,Morro Reuter,4312476,-29.537900000000,-51.081099999990,14236,2007
242,Mostardas,4312500,-31.105399999990,-50.916699999990,29806,2007
243,Muaum,4312609,-29.163000000000,-51.871400000000,14917,2007
244,Muitos Capaes,4312617,-28.313199999990,-51.183599999990,5074,2007
245,Muliterno,4312625,-28.325299999990,-51.769700000000,247,2007
246,Nao-Me-Toque,4312658,-28.454799999990,-52.818199999990,33252,2007
247,Nonoai,4312708,-27.368900000000,-52.775599999990,11025,2007
248,Nova Alvorada,4312757,-28.682200000000,-52.163100000000,5530,2007
249,Nova Araaa,4312807,-28.653700000000,-51.745800000000,23908,2007
250,Nova Bassano,4312906,-28.729099999990,-51.707200000000,33056,2007
251,Nova Boa Vista,4312955,-27.992599999990,-52.978400000000,2856,2007
252,Nova Brascia,4313003,-29.218200000000,-52.031900000000,7956,2007
253,Nova Candelaria,4313011,-27.613700000000,-54.107399999990,4862,2007
254,Nova Esperanaa do Sul,4313037,-29.406600000000,-54.829300000000,11797,2007
255,Nova Hartz,4313060,-29.580700000000,-50.905099999990,28678,2007
256,Nova Padua,4313086,-29.027500000000,-51.309800000000,3987,2007
257,Nova Palma,4313102,-29.471000000000,-53.468899999990,1,2007
258,Nova Petrapolis,4313201,-29.374099999990,-51.113500000000,43920,2007
259,Nova Prata,4313300,-28.779900000000,-51.611300000000,122733,2007
260,Nova Roma do Sul,4313359,-28.988199999990,-51.409500000000,21400,2007
261,Nova Santa Rita,4313375,-29.852499999990,-51.283700000000,40920,2007
262,Novo Barreiro,4313490,-27.907699999990,-53.110300000000,2819,2007
263,Novo Cabrais,4313391,-29.733799999990,-52.948900000000,592,2007
264,Novo Hamburgo,4313409,-29.687600000000,-51.132800000000,596781,2007
265,Novo Machado,4313425,-27.576499999990,-54.503599999990,5268,2007
266,Novo Xingu,4313466,-27.743099999990,-53.061599999990,1678,2007
267,Osario,4313508,-29.888100000000,-50.266700000000,88918,2007
268,Paim Filho,4313607,-27.707500000000,-51.762999999990,4911,2007
269,Palmares do Sul,4313656,-30.253499999990,-50.510300000000,36841,2007
270,Palmeira das Missaes,4313706,-27.900600000000,-53.313400000000,44374,2007
271,Palmitinho,4313805,-27.359600000000,-53.558000000000,6870,2007
272,Panambi,4313904,-28.283300000000,-53.502299999990,78877,2007
273,Pantano Grande,4313953,-30.190100000000,-52.372900000000,17227,2007
274,Paraa,4314001,-28.596399999990,-51.789600000000,19226,2007
275,Paraaso do Sul,4314027,-29.671700000000,-53.143999999990,10197,2007
276,Pareci Novo,4314035,-29.636500000000,-51.397399999990,5653,2007
277,Paroba,4314050,-29.624300000000,-50.831200000000,84387,2007
278,Passa Sete,4314068,-29.457699999990,-52.959899999990,3671,2007
279,Passo do Sobrado,4314076,-29.748000000000,-52.274799999990,9954,2007
280,Passo Fundo,4314100,-28.257600000000,-52.409100000000,366115,2007
281,Paulo Bento,4314134,-27.697800000000,-52.426099999990,10457,2007
282,Paverama,4314159,-29.548500000000,-51.733899999990,4643,2007
283,Pedras Altas,4314175,-31.721699999990,-53.583799999990,2409,2007
284,Pedro Osario,4314209,-31.864200000000,-52.818399999990,7701,2007
285,Pejuaara,4314308,-28.428300000000,-53.657899999990,3932,2007
286,Pelotas,4314407,-31.764900000000,-52.337100000000,475577,2007
287,Picada Cafa,4314423,-29.446400000000,-51.136699999990,15943,2007
288,Pinhal da Serra,4314464,-27.863399999990,-51.170200000000,1528,2007
289,Pinhal Grande,4314472,-29.344999999990,-53.320700000000,3739,2007
290,Pinheirinho do Vale,4314498,-27.210899999990,-53.607999999990,4102,2007
291,Pinheiro Machado,4314506,-31.579400000000,-53.379800000000,35528,2007
292,Pirapa,4314555,-28.043900000000,-55.200099999990,2382,2007
293,Piratini,4314605,-31.447299999990,-53.097299999990,14803,2007
294,Planalto,4314704,-27.329699999990,-53.057500000000,11272,2007
295,Ponte Preta,4314787,-27.658700000000,-52.484800000000,2876,2007
296,Portao,4314803,-29.701499999990,-51.242899999990,86775,2007
297,Porto Alegre,4314902,-30.032778000000,-51.230000000000,3192501,2007
298,Porto Lucena,4315008,-27.856900000000,-55.009999999990,3253,2007
299,Porto Maua,4315057,-27.579599999990,-54.665700000000,2710,2007
300,Porto Vera Cruz,4315073,-27.740500000000,-54.899400000000,986,2007
301,Porto Xavier,4315107,-27.908200000000,-55.137900000000,11266,2007
302,Presidente Lucena,4315149,-29.517600000000,-51.179800000000,7447,2007
303,Protasio Alves,4315172,-28.757200000000,-51.475700000000,3495,2007
304,Putinga,4315206,-29.004500000000,-52.156900000000,5884,2007
305,Quaraa,4315305,-30.384000000000,-56.448300000000,27448,2007
306,Quatro Irmaos,4315313,-27.816299999990,-52.441899999990,2108,2007
307,Quevedos,4315321,-29.350400000000,-54.078899999990,1943,2007
308,Quinze de Novembro,4315354,-28.746500000000,-53.101100000000,2310,2007
309,Redentora,4315404,-27.664000000000,-53.640700000000,4928,2007
310,Relvado,4315453,-29.116399999990,-52.077800000000,2599,2007
311,Restinga Saca,4315503,-29.818800000000,-53.380699999990,3421,2007
312,Rio dos andios,4315552,-27.297300000000,-52.841700000000,2472,2007
313,Rio Grande,4315602,-32.034900000000,-52.107100000000,445411,2007
314,Rio Pardo,4315701,-29.988000000000,-52.371099999990,48098,2007
315,Riozinho,4315750,-29.638999999990,-50.448799999990,7269,2007
316,Roca Sales,4315800,-29.288399999990,-51.865800000000,31466,2007
317,Rolador,4315958,-28.257670000000,-54.818640000000,435,2007
318,Rolante,4316006,-29.646200000000,-50.581899999990,25711,2007
319,Ronda Alta,4316105,-27.775800000000,-52.805599999990,6952,2007
320,Rondinha,4316204,-27.831499999990,-52.908099999990,6215,2007
321,Roque Gonzales,4316303,-28.129700000000,-55.026600000000,5385,2007
322,Rosario do Sul,4316402,-30.251500000000,-54.922100000000,43993,2007
323,Sagrada Famalia,4316428,-27.708500000000,-53.135100000000,1670,2007
324,Saldanha Marinho,4316436,-28.394100000000,-53.097000000000,2420,2007
325,Salto do Jacua,4316451,-29.095099999990,-53.213299999990,17997,2007
326,Salvador das Missaes,4316477,-28.123300000000,-54.837299999990,3093,2007
327,Salvador do Sul,4316501,-29.438600000000,-51.507700000000,727,2007
328,Sananduva,4316600,-27.946999999990,-51.807899999990,25669,2007
329,Santa Barbara do Sul,4316709,-28.365300000000,-53.250999999990,12685,2007
330,Santa Clara do Sul,4316758,-29.474699999990,-52.084299999990,190,2007
331,Santa Cruz do Sul,4316808,-29.722000000000,-52.434300000000,324768,2007
332,Santa Margarida do Sul,4316972,-30.329599999990,-54.082299999990,2177,2007
333,Santa Maria,4316907,-29.686800000000,-53.814999999990,411714,2007
334,Santa Maria do Herval,4316956,-29.490200000000,-50.991900000000,10412,2007
335,Santa Rosa,4317202,-27.870200000000,-54.479599999990,152005,2007
336,Santa Tereza,4317251,-29.165500000000,-51.735100000000,3338,2007
337,Santa Vitaria do Palmar,4317301,-33.524999999990,-53.371699999990,80252,2007
338,Santana da Boa Vista,4317004,-30.869700000000,-53.109999999990,4896,2007
339,Santana do Livramento,4317103,-30.887699999990,-55.531500000000,87120,2007
340,Santiago,4317400,-29.189699999990,-54.866599999990,52321,2007
341,Santo angelo,4317509,-28.300100000000,-54.266800000000,138520,2007
342,Santo Antanio da Patrulha,4317608,-29.826799999990,-50.517499999990,58407,2007
343,Santo Antanio das Missaes,4317707,-28.513999999990,-55.225099999990,4084,2007
344,Santo Antanio do Palma,4317558,-28.495600000000,-52.026699999990,2815,2007
345,Santo Augusto,4317806,-27.852599999990,-53.777600000000,15847,2007
346,Santo Cristo,4317905,-27.826300000000,-54.661999999990,28326,2007
347,Santo Expedito do Sul,4317954,-27.907399999990,-51.643300000000,1374,2007
348,Sao Borja,4318002,-28.657800000000,-56.003599999990,139060,2007
349,Sao Domingos do Sul,4318051,-28.531199999990,-51.886000000000,2076,2007
350,Sao Francisco de Assis,4318101,-29.554700000000,-55.125300000000,16720,2007
351,Sao Francisco de Paula,4318200,-29.440400000000,-50.582799999990,32274,2007
352,Sao Gabriel,4318309,-30.333700000000,-54.321700000000,64596,2007
353,Sao Jeranimo,4318408,-29.971599999990,-51.725099999990,24429,2007
354,Sao Joao da Urtiga,4318424,-27.819500000000,-51.825699999990,3865,2007
355,Sao Joao do Polasine,4318432,-29.619399999990,-53.443899999990,98,2007
356,Sao Jorge,4318440,-28.498400000000,-51.706400000000,5222,2007
357,Sao Josa das Missaes,4318457,-27.778900000000,-53.122599999990,1973,2007
358,Sao Josa do Hortancio,4318481,-29.527999999990,-51.245000000000,9597,2007
359,Sao Josa do Inhacora,4318499,-27.725100000000,-54.127499999990,2168,2007
360,Sao Josa do Norte,4318507,-32.015099999990,-52.033099999990,15921,2007
361,Sao Josa do Ouro,4318606,-27.770700000000,-51.596600000000,9428,2007
362,Sao Josa do Sul,4318614,-29.529000000000,-51.487099999990,2703,2007
363,Sao Josa dos Ausentes,4318622,-28.747599999990,-50.067700000000,4071,2007
364,Sao Leopoldo,4318705,-29.754500000000,-51.149799999990,522700,2007
365,Sao Lourenao do Sul,4318804,-31.356400000000,-51.971499999990,46436,2007
366,Sao Luiz Gonzaga,4318903,-28.411999999990,-54.955900000000,60499,2007
367,Sao Marcos,4319000,-28.967700000000,-51.069600000000,46595,2007
368,Sao Martinho,4319109,-27.711200000000,-53.969900000000,7017,2007
369,Sao Martinho da Serra,4319125,-29.539700000000,-53.859000000000,5445,2007
370,Sao Miguel das Missaes,4319158,-28.556000000000,-54.555900000000,110,2007
371,Sao Nicolau,4319208,-28.183399999990,-55.265400000000,3901,2007
372,Sao Paulo das Missaes,4319307,-28.019500000000,-54.940399999990,5183,2007
373,Sao Pedro das Missaes,4319364,-27.773219999990,-53.250470000000,1350,2007
374,Sao Pedro do Butia,4319372,-28.124300000000,-54.892600000000,7786,2007
375,Sao Pedro do Sul,4319406,-29.620200000000,-54.185499999990,17415,2007
376,Sao Sebastiao do Caa,4319505,-29.588500000000,-51.374899999990,47172,2007
377,Sao Sepa,4319604,-30.164300000000,-53.560299999990,39152,2007
378,Sao Valentim,4319703,-27.558299999990,-52.523699999990,3798,2007
379,Sao Valentim do Sul,4319711,-29.045100000000,-51.768400000000,1637,2007
380,Sao Valario do Sul,4319737,-27.790600000000,-53.936799999990,1211,2007
381,Sao Vendelino,4319752,-29.372900000000,-51.367500000000,4472,2007
382,Sao Vicente do Sul,4319802,-29.688199999990,-54.682600000000,12624,2007
383,Sapiranga,4319901,-29.634899999990,-51.006500000000,166976,2007
384,Sapucaia do Sul,4320008,-29.827600000000,-51.145000000000,513264,2007
385,Sarandi,4320107,-27.942000000000,-52.923099999990,44527,2007
386,Seberi,4320206,-27.482900000000,-53.402600000000,9992,2007
387,Sede Nova,4320230,-27.636700000000,-53.949300000000,3074,2007
388,Segredo,4320263,-29.352300000000,-52.976700000000,3438,2007
389,Selbach,4320305,-28.629400000000,-52.949800000000,358,2007
390,Senador Salgado Filho,4320321,-28.025000000000,-54.550699999990,195,2007
391,Sentinela do Sul,4320354,-30.610700000000,-51.586199999990,9471,2007
392,Serafina Corraa,4320404,-28.712599999990,-51.935299999990,47719,2007
393,Sario,4320453,-29.390400000000,-52.268500000000,315,2007
394,Sertao,4320503,-27.979800000000,-52.258800000000,10512,2007
395,Sertao Santana,4320552,-30.456199999990,-51.601700000000,15826,2007
396,Sete de Setembro,4320578,-28.136199999990,-54.463700000000,1665,2007
397,Severiano de Almeida,4320602,-27.436199999990,-52.121699999990,4629,2007
398,Silveira Martins,4320651,-29.646699999990,-53.591000000000,77,2007
399,Sinimbu,4320677,-29.535699999990,-52.530500000000,8125,2007
400,Sobradinho,4320701,-29.419400000000,-53.032600000000,18274,2007
401,Soledade,4320800,-28.830600000000,-52.513100000000,36909,2007
402,Tabaa,4320859,-29.643000000000,-51.682299999990,233,2007
403,Tapejara,4320909,-28.065200000000,-52.009700000000,63582,2007
404,Tapera,4321006,-28.627700000000,-52.861199999990,54419,2007
405,Tapes,4321105,-30.668299999990,-51.399099999990,26478,2007
406,Taquara,4321204,-29.650500000000,-50.775300000000,78598,2007
407,Taquari,4321303,-29.794300000000,-51.865299999990,75940,2007
408,Taquaruau do Sul,4321329,-27.400400000000,-53.470300000000,2160,2007
409,Tavares,4321352,-31.284300000000,-51.088000000000,6978,2007
410,Tenente Portela,4321402,-27.371099999990,-53.758499999990,13103,2007
411,Terra de Areia,4321436,-29.578199999990,-50.064399999990,11070,2007
412,Teutania,4321451,-29.448200000000,-51.804400000000,925,2007
413,Tio Hugo,4321469,-28.574040000000,-52.594900000000,120,2007
414,Tiradentes do Sul,4321477,-27.402200000000,-54.081400000000,5782,2007
415,Toropi,4321493,-29.478200000000,-54.224400000000,2719,2007
416,Torres,4321501,-29.333400000000,-49.733300000000,74243,2007
417,Tramandaa,4321600,-29.984100000000,-50.132199999990,69029,2007
418,Travesseiro,4321626,-29.297699999990,-52.053199999990,40,2007
419,Tras Arroios,4321634,-27.500299999990,-52.144799999990,3424,2007
420,Tras Cachoeiras,4321667,-29.448699999990,-49.927500000000,12602,2007
421,Tras Coroas,4321709,-29.513700000000,-50.773899999990,55067,2007
422,Tras de Maio,4321808,-27.780000000000,-54.235700000000,36656,2007
423,Tras Forquilhas,4321832,-29.538399999990,-50.070799999990,3017,2007
424,Tras Palmeiras,4321857,-27.613900000000,-52.843699999990,4266,2007
425,Tras Passos,4321907,-27.455500000000,-53.929600000000,45793,2007
426,Trindade do Sul,4321956,-27.523900000000,-52.895600000000,5291,2007
427,Triunfo,4322004,-29.929099999990,-51.707500000000,71233,2007
428,Tucunduva,4322103,-27.657299999990,-54.443899999990,7313,2007
429,Tunas,4322152,-29.103899999990,-52.953800000000,601,2007
430,Tupanci do Sul,4322186,-27.924099999990,-51.538300000000,1532,2007
431,Tupancireta,4322202,-29.085799999990,-53.844499999990,32849,2007
432,Tupandi,4322251,-29.477200000000,-51.417400000000,12350,2007
433,Tuparendi,4322301,-27.759799999990,-54.481400000000,11826,2007
434,Turuau,4322327,-31.417300000000,-52.170600000000,9158,2007
435,Ubiretama,4322343,-28.040400000000,-54.685899999990,1329,2007
436,Uniao da Serra,4322350,-28.783300000000,-52.023800000000,1524,2007
437,Unistalda,4322376,-29.039999999990,-55.151699999990,1716,2007
438,Uruguaiana,4322400,-29.761399999990,-57.085299999990,239312,2007
439,Vacaria,4322509,-28.507899999990,-50.941800000000,106330,2007
440,Vale do Sol,4322533,-29.596699999990,-52.683900000000,10266,2007
441,Vale Real,4322541,-29.391900000000,-51.255899999990,9066,2007
442,Vanini,4322558,-28.475800000000,-51.844700000000,1970,2007
443,Venancio Aires,4322608,-29.614300000000,-52.193199999990,148100,2007
444,Vera Cruz,4322707,-29.718399999990,-52.515200000000,33085,2007
445,Veranapolis,4322806,-28.931200000000,-51.551600000000,64300,2007
446,Vespasiano Correa,4322855,-29.065500000000,-51.862500000000,3400,2007
447,Viadutos,4322905,-27.571600000000,-52.021099999990,5796,2007
448,Viamao,4323002,-30.081900000000,-51.019399999990,249435,2007
449,Vicente Dutra,4323101,-27.160799999990,-53.402200000000,3558,2007
450,Victor Graeff,4323200,-28.563199999990,-52.749499999990,1934,2007
451,Vila Flores,4323309,-28.859800000000,-51.550400000000,11859,2007
452,Vila Maria,4323408,-28.535900000000,-52.148699999990,6455,2007
453,Vila Nova do Sul,4323457,-30.346100000000,-53.875999999990,236,2007
454,Vista Alegre,4323507,-27.368600000000,-53.491900000000,2013,2007
455,Vista Alegre do Prata,4323606,-28.805199999990,-51.794600000000,2163,2007
456,Vista Gaacha,4323705,-27.290199999990,-53.697400000000,4080,2007
457,Vitaria das Missaes,4323754,-28.351600000000,-54.503999999990,627,2007
458,Xangri-la,4323804,-29.806500000000,-50.051900000000,35123,2007
460,agua Santa,4300059,-28.167200000000,-52.030999999990,1337,2001
461,Agudo,4300109,-29.644700000000,-53.251500000000,45161,2001
462,Ajuricaba,4300208,-28.234200000000,-53.775700000000,4239,2001
463,Alecrim,4300307,-27.657900000000,-54.764899999990,2690,2001
464,Alegrete,4300406,-29.790199999990,-55.794899999990,121213,2001
465,Alegria,4300455,-27.834499999990,-54.055700000000,2435,2001
466,Alpestre,4300505,-27.250200000000,-53.034100000000,5396,2001
467,Alto Feliz,4300570,-29.391900000000,-51.312300000000,3484,2001
468,Alvorada,4300604,-29.991399999990,-51.080900000000,138625,2001
469,Amaral Ferrador,4300638,-30.875599999990,-52.250999999990,2311,2001
470,Ametista do Sul,4300646,-27.360700000000,-53.183000000000,10890,2001
471,Andra da Rocha,4300661,-28.628299999990,-51.579700000000,1976,2001
472,Anta Gorda,4300703,-28.969799999990,-52.010199999990,8639,2001
473,Antanio Prado,4300802,-28.856500000000,-51.288300000000,28644,2001
474,Arambara,4300851,-30.909300000000,-51.504600000000,7094,2001
475,Ararica,4300877,-29.616800000000,-50.929099999990,6962,2001
476,Aratiba,4300901,-27.397800000000,-52.297499999990,7312,2001
477,Arroio do Meio,4301008,-29.401399999990,-51.955700000000,56013,2001
478,Arroio do Padre,4301073,-31.431600000000,-52.417099999990,684,2001
479,Arroio do Sal,4301057,-29.543900000000,-49.889499999990,13363,2001
480,Arroio do Tigre,4301206,-29.334800000000,-53.096600000000,15543,2001
481,Arroio dos Ratos,4301107,-30.087500000000,-51.727499999990,13352,2001
482,Arroio Grande,4301305,-32.232700000000,-53.086199999990,30198,2001
483,Arvorezinha,4301404,-28.873699999990,-52.178100000000,9730,2001
484,Augusto Pestana,4301503,-28.517299999990,-53.988300000000,3618,2001
485,aurea,4301552,-27.693600000000,-52.050500000000,2857,2001
486,Baga,4301602,-31.329699999990,-54.099899999990,119744,2001
487,Balneario Pinhal,4301636,-30.241900000000,-50.233600000000,14128,2001
488,Barao,4301651,-29.372500000000,-51.494900000000,686,2001
489,Barao de Cotegipe,4301701,-27.620799999990,-52.379800000000,5552,2001
490,Barao do Triunfo,4301750,-30.389099999990,-51.738399999990,1031,2001
491,Barra do Guarita,4301859,-27.192699999990,-53.710900000000,1826,2001
492,Barra do Quaraa,4301875,-30.202900000000,-57.549700000000,19227,2001
493,Barra do Ribeiro,4301909,-30.293900000000,-51.301400000000,13941,2001
494,Barra do Rio Azul,4301925,-27.406800000000,-52.408400000000,2057,2001
495,Barra Funda,4301958,-27.920500000000,-53.039099999990,4769,2001
496,Barracao,4301800,-27.673900000000,-51.458599999990,4013,2001
497,Barros Cassal,4302006,-29.094700000000,-52.583599999990,6464,2001
498,Benjamin Constant do Sul,4302055,-27.508600000000,-52.599499999990,998,2001
499,Bento Gonaalves,4302105,-29.166200000000,-51.516500000000,255166,2001
500,Boa Vista das Missaes,4302154,-27.667100000000,-53.310200000000,60,2001
501,Boa Vista do Burica,4302204,-27.669300000000,-54.108199999990,9312,2001
502,Boa Vista do Cadeado,4302220,-28.571600000000,-53.813800000000,787,2001
503,Boa Vista do Sul,4302253,-29.354399999990,-51.668700000000,2817,2001
504,Bom Jesus,4302303,-28.669699999990,-50.429499999990,10593,2001
505,Bom Princapio,4302352,-29.485600000000,-51.354799999990,25798,2001
506,Bom Progresso,4302378,-27.539899999990,-53.871600000000,2090,2001
507,Bom Retiro do Sul,4302402,-29.608599999990,-51.946399999990,18680,2001
508,Boqueirao do Leao,4302451,-29.304600000000,-52.428400000000,610,2001
509,Bossoroca,4302501,-28.729099999990,-54.903500000000,152,2001
510,Braga,4302600,-27.617300000000,-53.740499999990,2910,2001
511,Brochier,4302659,-29.550100000000,-51.594499999990,5356,2001
512,Butia,4302709,-30.117899999990,-51.960099999990,30202,2001
513,Caaapava do Sul,4302808,-30.514399999990,-53.482700000000,45872,2001
514,Cacequi,4302907,-29.888300000000,-54.822000000000,13393,2001
515,Cachoeira do Sul,4303004,-30.033000000000,-52.892800000000,99716,2001
516,Cachoeirinha,4303103,-29.947199999990,-51.101599999990,209664,2001
517,Cacique Doble,4303202,-27.766999999990,-51.659700000000,2989,2001
518,Caiaara,4303400,-27.279100000000,-53.425699999990,3695,2001
519,Camaqua,4303509,-30.848900000000,-51.804299999990,111764,2001
520,Camargo,4303558,-28.588000000000,-52.200299999990,2374,2001
521,Cambara do Sul,4303608,-29.047400000000,-50.146500000000,13893,2001
522,Campestre da Serra,4303673,-28.792600000000,-51.094099999990,3357,2001
523,Campina das Missaes,4303707,-27.988800000000,-54.841700000000,2839,2001
524,Campinas do Sul,4303806,-27.717400000000,-52.624800000000,5946,2001
525,Campo Bom,4303905,-29.674700000000,-51.060600000000,159810,2001
526,Campo Novo,4304002,-27.679200000000,-53.805199999990,7382,2001
527,Candelaria,4304200,-29.668399999990,-52.789499999990,35544,2001
528,Candido Godai,4304309,-27.951499999990,-54.751700000000,9929,2001
529,Candiota,4304358,-31.551500000000,-53.677300000000,67141,2001
530,Canela,4304408,-29.356000000000,-50.811900000000,70366,2001
531,Canguau,4304507,-31.396000000000,-52.678199999990,26633,2001
532,Canoas,4304606,-29.912800000000,-51.185699999990,554209,2001
533,Capao Bonito do Sul,4304622,-29.764199999990,-50.028199999990,797,2001
534,Capao da Canoa,4304630,-29.639700000000,-49.959899999990,61054,2001
535,Capao do Leao,4304663,-31.756499999990,-52.488900000000,37367,2001
536,Capela de Santana,4304689,-29.696100000000,-51.328000000000,16015,2001
537,Capivari do Sul,4304671,-30.138200000000,-50.515099999990,11835,2001
538,Caraa,4304713,-29.786899999990,-50.431600000000,4315,2001
539,Carazinho,4304705,-28.295800000000,-52.793300000000,131586,2001
540,Carlos Barbosa,4304804,-29.296900000000,-51.502899999990,99195,2001
541,Carlos Gomes,4304853,-27.716699999990,-51.912100000000,1033,2001
542,Casca,4304903,-28.560500000000,-51.981499999990,17004,2001
543,Caseiros,4304952,-28.258199999990,-51.686100000000,2261,2001
544,Catuape,4305009,-28.255400000000,-54.013199999990,9042,2001
545,Caxias do Sul,4305108,-29.162900000000,-51.179200000000,962975,2001
546,Centenario,4305116,-27.761600000000,-51.998399999990,1748,2001
547,Cerrito,4305124,-31.841899999990,-52.800400000000,4553,2001
548,Cerro Branco,4305132,-29.657000000000,-52.940600000000,50,2001
549,Cerro Grande,4305157,-27.610600000000,-53.167200000000,60,2001
550,Cerro Grande do Sul,4305173,-30.590499999990,-51.741799999990,4588,2001
551,Cerro Largo,4305207,-28.146200000000,-54.742800000000,26959,2001
552,Charqueadas,4305355,-29.962500000000,-51.628900000000,297742,2001
553,Charrua,4305371,-27.949300000000,-52.015000000000,818,2001
554,Chiapetta,4305405,-27.922999999990,-53.941899999990,3728,2001
555,Chua,4305439,-33.686599999990,-53.459400000000,9626,2001
556,Chuvisca,4305447,-30.750399999990,-51.973700000000,2291,2001
557,Cidreira,4305454,-30.160399999990,-50.233800000000,23800,2001
558,Ciraaco,4305504,-28.341899999990,-51.874099999990,7172,2001
559,Colinas,4305587,-29.381499999990,-51.852600000000,3931,2001
560,Constantina,4305801,-27.731999999990,-52.993800000000,10110,2001
561,Coronel Bicaco,4305900,-27.719700000000,-53.702199999990,6418,2001
562,Coronel Pilar,4305934,-29.268400000000,-51.687899999990,1793,2001
563,Cotipora,4305959,-28.989100000000,-51.697099999990,5233,2001
564,Coxilha,4305975,-28.128000000000,-52.302300000000,2867,2001
565,Crissiumal,4306007,-27.499900000000,-54.099400000000,16054,2001
566,Cristal,4306056,-31.004600000000,-52.043599999990,8330,2001
567,Cruz Alta,4306106,-28.645000000000,-53.604799999990,86345,2001
568,Cruzaltense,4306130,-27.664400000000,-52.649200000000,3141,2001
569,Cruzeiro do Sul,4306205,-29.514800000000,-51.992800000000,18295,2001
570,David Canabarro,4306304,-28.384899999990,-51.848199999990,2114,2001
571,Derrubadas,4306320,-27.264199999990,-53.864500000000,2502,2001
572,Dezesseis de Novembro,4306353,-28.219000000000,-55.061700000000,2339,2001
573,Dilermando de Aguiar,4306379,-29.705400000000,-54.212200000000,2496,2001
574,Dois Irmaos,4306403,-29.583600000000,-51.089799999990,47371,2001
575,Dois Irmaos das Missaes,4306429,-27.662099999990,-53.530400000000,10503,2001
576,Dois Lajeados,4306452,-28.983000000000,-51.839599999990,3443,2001
577,Dom Feliciano,4306502,-30.700399999990,-52.102600000000,5704,2001
578,Dom Pedrito,4306601,-30.975600000000,-54.669400000000,54803,2001
579,Dom Pedro de Alcantara,4306551,-29.363900000000,-49.853000000000,2779,2001
580,Doutor Mauracio Cardoso,4306734,-27.510300000000,-54.357799999990,5801,2001
581,Doutor Ricardo,4306759,-29.084000000000,-51.997100000000,2303,2001
582,Eldorado do Sul,4306767,-30.084700000000,-51.618699999990,80107,2001
583,Encantado,4306809,-29.235099999990,-51.870300000000,50289,2001
584,Encruzilhada do Sul,4306908,-30.542999999990,-52.520400000000,16763,2001
585,Engenho Velho,4306924,-27.706000000000,-52.914499999990,1662,2001
586,Entre Rios do Sul,4306957,-27.529800000000,-52.734699999990,2510,2001
587,Entre-ijuas,4306932,-28.368600000000,-54.268599999990,6276,2001
588,Erebango,4306973,-27.854399999990,-52.300500000000,2676,2001
589,Erechim,4307005,-27.636399999990,-52.269700000000,166972,2001
590,Ernestina,4307054,-28.497699999990,-52.583599999990,7130,2001
591,Erval Grande,4307203,-27.392600000000,-52.573999999990,3800,2001
592,Erval Seco,4307302,-27.544300000000,-53.500500000000,5095,2001
593,Esmeralda,4307401,-28.051800000000,-51.193300000000,2622,2001
594,Esperanaa do Sul,4307450,-27.360299999990,-53.989100000000,2443,2001
595,Espumoso,4307500,-28.728600000000,-52.846100000000,21671,2001
596,Estaaao,4307559,-27.913499999990,-52.263500000000,14362,2001
597,Estancia Velha,4307609,-29.653500000000,-51.184300000000,102872,2001
598,Esteio,4307708,-29.852000000000,-51.184100000000,291422,2001
599,Estrela,4307807,-29.501600000000,-51.960500000000,69630,2001
600,Estrela Velha,4307815,-29.171299999990,-53.163899999990,21,2001
601,Euganio de Castro,4307831,-28.531500000000,-54.150599999990,2849,2001
602,Fagundes Varela,4307864,-28.879400000000,-51.701400000000,4122,2001
603,Farroupilha,4307906,-29.222700000000,-51.341900000000,138053,2001
604,Faxinal do Soturno,4308003,-29.578800000000,-53.448399999990,28467,2001
605,Faxinalzinho,4308052,-27.423800000000,-52.678899999990,1904,2001
606,Fazenda Vilanova,4308078,-29.588500000000,-51.821700000000,3266,2001
607,Feliz,4308102,-29.452700000000,-51.303199999990,19763,2001
608,Flores da Cunha,4308201,-29.026199999990,-51.187500000000,64472,2001
609,Formigueiro,4308409,-30.003499999990,-53.495899999990,6957,2001
610,Fortaleza dos Valos,4308458,-28.798600000000,-53.224899999990,2948,2001
611,Frederico Westphalen,4308508,-27.358599999990,-53.395800000000,36117,2001
612,Garibaldi,4308607,-29.259000000000,-51.535200000000,87692,2001
613,Garruchos,4308656,-28.194400000000,-55.638300000000,3337,2001
614,Gaurama,4308706,-27.585599999990,-52.091500000000,8057,2001
615,General Camara,4308805,-29.903199999990,-51.761200000000,6466,2001
616,Gentil,4308854,-28.431600000000,-52.033700000000,602,2001
617,Getalio Vargas,4308904,-27.891100000000,-52.229399999990,21947,2001
618,Girua,4309001,-28.029699999990,-54.351700000000,21550,2001
619,Glorinha,4309050,-29.879799999990,-50.773400000000,7972,2001
620,Gramado,4309100,-29.373300000000,-50.876199999990,60294,2001
621,Gramado dos Loureiros,4309126,-27.442900000000,-52.914900000000,627,2001
622,Gramado Xavier,4309159,-29.270600000000,-52.579500000000,729,2001
623,Gravataa,4309209,-29.941299999990,-50.986899999990,603476,2001
624,Guabiju,4309258,-28.542100000000,-51.694800000000,1697,2001
625,Guaaba,4309308,-30.108599999990,-51.323300000000,238550,2001
626,Guapora,4309407,-28.839900000000,-51.889499999990,33282,2001
627,Guarani das Missaes,4309506,-28.149100000000,-54.562899999990,11902,2001
628,Harmonia,4309555,-29.545600000000,-51.418500000000,6453,2001
629,Herval,4307104,-32.024000000000,-53.394399999990,5448,2001
630,Herveiras,4309571,-29.455200000000,-52.655299999990,1393,2001
631,Horizontina,4309605,-27.628200000000,-54.305300000000,44552,2001
632,Hulha Negra,4309654,-31.406700000000,-53.866700000000,18858,2001
633,Humaita,4309704,-27.569099999990,-53.969499999990,6001,2001
634,Ibarama,4309753,-29.420300000000,-53.129500000000,3087,2001
635,Ibiraiaras,4309902,-28.374099999990,-51.637700000000,7101,2001
636,Ibirapuita,4309951,-28.624700000000,-52.515799999990,3778,2001
637,Ibiruba,4310009,-28.630199999990,-53.096100000000,36149,2001
638,Igrejinha,4310108,-29.569299999990,-50.791899999990,44169,2001
639,Ijua,4310207,-28.388100000000,-53.920000000000,121644,2001
640,Ilapolis,4310306,-28.928200000000,-52.125799999990,3886,2001
641,Imba,4310330,-29.975300000000,-50.128100000000,33645,2001
642,Imigrante,4310363,-29.350800000000,-51.774700000000,6647,2001
643,Independancia,4310405,-27.835400000000,-54.188600000000,3557,2001
644,Inhacora,4310413,-27.875200000000,-54.015000000000,2137,2001
645,Ipa,4310439,-28.817100000000,-51.285899999990,5254,2001
646,Ipiranga do Sul,4310462,-27.940400000000,-52.427100000000,1964,2001
647,Iraa,4310504,-27.195100000000,-53.254300000000,5973,2001
648,Itaara,4310538,-29.601299999990,-53.772500000000,6070,2001
649,Itacurubi,4310553,-28.791300000000,-55.244700000000,3142,2001
650,Itapuca,4310579,-28.776800000000,-52.169300000000,96,2001
651,Itaqui,4310603,-29.131000000000,-56.551499999990,110703,2001
652,Itati,4310652,-29.488320000000,-50.113579999990,2449,2001
653,Itatiba do Sul,4310702,-27.384599999990,-52.453800000000,3238,2001
654,Ivora,4310751,-29.523199999990,-53.584200000000,586,2001
655,Ivoti,4310801,-29.599499999990,-51.153300000000,39966,2001
656,Jacutinga,4310900,-27.729099999990,-52.537199999990,4464,2001
657,Jaguarao,4311007,-32.560400000000,-53.377000000000,35636,2001
658,Jaguari,4311106,-29.493600000000,-54.703000000000,12142,2001
659,Jaquirana,4311122,-28.881100000000,-50.363700000000,4420,2001
660,Jari,4311130,-29.292200000000,-54.223700000000,531,2001
661,Jaia,4311155,-28.643500000000,-54.114100000000,5533,2001
662,Jalio de Castilhos,4311205,-29.229800000000,-53.677199999990,20319,2001
663,Lagoa dos Tras Cantos,4311270,-28.567599999990,-52.861800000000,965,2001
664,Lagoa Vermelha,4311304,-28.209299999990,-51.524799999990,32793,2001
665,Lagoao,4311254,-29.234800000000,-52.799700000000,409,2001
666,Lajeado,4311403,-29.459099999990,-51.964399999990,361312,2001
667,Lajeado do Bugre,4311429,-27.691299999990,-53.181800000000,305,2001
668,Lavras do Sul,4311502,-30.807099999990,-53.893099999990,5792,2001
669,Liberato Salzano,4311601,-27.600999999990,-53.075299999990,3775,2001
670,Lindolfo Collor,4311627,-29.585899999990,-51.214100000000,10902,2001
671,Linha Nova,4311643,-29.467900000000,-51.200299999990,1337,2001
672,Maaambara,4311718,-29.144500000000,-56.067399999990,7536,2001
673,Machadinho,4311700,-27.566700000000,-51.666800000000,4152,2001
674,Mampituba,4311734,-29.213600000000,-49.931100000000,1661,2001
675,Manoel Viana,4311759,-29.585899999990,-55.484099999990,5416,2001
676,Maquina,4311775,-29.679800000000,-50.207900000000,5958,2001
677,Marata,4311791,-29.545700000000,-51.557299999990,2825,2001
678,Marau,4311809,-28.449800000000,-52.198599999990,114362,2001
679,Marcelino Ramos,4311908,-27.467600000000,-51.909500000000,6758,2001
680,Mariana Pimentel,4311981,-30.353100000000,-51.580300000000,2503,2001
681,Mariano Moro,4312005,-27.356800000000,-52.146700000000,2508,2001
682,Mata,4312104,-29.564900000000,-54.464100000000,4930,2001
683,Mato Leitao,4312153,-29.528500000000,-52.127800000000,5977,2001
684,Maximiliano de Almeida,4312203,-27.632500000000,-51.802100000000,23883,2001
685,Minas do Leao,4312252,-30.134599999990,-52.042299999990,7811,2001
686,Miraguaa,4312302,-27.497000000000,-53.689100000000,3677,2001
687,Montauri,4312351,-28.646200000000,-52.076700000000,1219,2001
688,Monte Alegre dos Campos,4312377,-28.680499999990,-50.783400000000,1529,2001
689,Monte Belo do Sul,4312385,-29.160699999990,-51.633299999990,2844,2001
690,Montenegro,4312401,-29.682400000000,-51.467900000000,128041,2001
691,Mormaao,4312427,-28.696800000000,-52.699900000000,1383,2001
692,Morrinhos do Sul,4312443,-29.357800000000,-49.932800000000,2947,2001
693,Morro Redondo,4312450,-31.588699999990,-52.626100000000,7361,2001
694,Morro Reuter,4312476,-29.537900000000,-51.081099999990,10345,2001
695,Mostardas,4312500,-31.105399999990,-50.916699999990,22310,2001
696,Muaum,4312609,-29.163000000000,-51.871400000000,9122,2001
697,Muitos Capaes,4312617,-28.313199999990,-51.183599999990,3040,2001
698,Muliterno,4312625,-28.325299999990,-51.769700000000,158,2001
699,Nao-Me-Toque,4312658,-28.454799999990,-52.818199999990,23976,2001
700,Nonoai,4312708,-27.368900000000,-52.775599999990,11465,2001
701,Nova Alvorada,4312757,-28.682200000000,-52.163100000000,3313,2001
702,Nova Araaa,4312807,-28.653700000000,-51.745800000000,9566,2001
703,Nova Bassano,4312906,-28.729099999990,-51.707200000000,24917,2001
704,Nova Boa Vista,4312955,-27.992599999990,-52.978400000000,2413,2001
705,Nova Brascia,4313003,-29.218200000000,-52.031900000000,6222,2001
706,Nova Candelaria,4313011,-27.613700000000,-54.107399999990,3665,2001
707,Nova Esperanaa do Sul,4313037,-29.406600000000,-54.829300000000,10674,2001
708,Nova Hartz,4313060,-29.580700000000,-50.905099999990,22564,2001
709,Nova Padua,4313086,-29.027500000000,-51.309800000000,3321,2001
710,Nova Petrapolis,4313201,-29.374099999990,-51.113500000000,34212,2001
711,Nova Prata,4313300,-28.779900000000,-51.611300000000,78125,2001
712,Nova Roma do Sul,4313359,-28.988199999990,-51.409500000000,4172,2001
713,Nova Santa Rita,4313375,-29.852499999990,-51.283700000000,66465,2001
714,Novo Barreiro,4313490,-27.907699999990,-53.110300000000,2468,2001
715,Novo Cabrais,4313391,-29.733799999990,-52.948900000000,366,2001
716,Novo Hamburgo,4313409,-29.687600000000,-51.132800000000,524642,2001
717,Novo Machado,4313425,-27.576499999990,-54.503599999990,4579,2001
718,Novo Xingu,4313466,-27.743099999990,-53.061599999990,615,2001
719,Osario,4313508,-29.888100000000,-50.266700000000,72924,2001
720,Paim Filho,4313607,-27.707500000000,-51.762999999990,4372,2001
721,Palmares do Sul,4313656,-30.253499999990,-50.510300000000,27676,2001
722,Palmeira das Missaes,4313706,-27.900600000000,-53.313400000000,40231,2001
723,Palmitinho,4313805,-27.359600000000,-53.558000000000,6040,2001
724,Panambi,4313904,-28.283300000000,-53.502299999990,61298,2001
725,Pantano Grande,4313953,-30.190100000000,-52.372900000000,16257,2001
726,Paraa,4314001,-28.596399999990,-51.789600000000,13837,2001
727,Paraaso do Sul,4314027,-29.671700000000,-53.143999999990,8661,2001
728,Pareci Novo,4314035,-29.636500000000,-51.397399999990,4086,2001
729,Paroba,4314050,-29.624300000000,-50.831200000000,86144,2001
730,Passa Sete,4314068,-29.457699999990,-52.959899999990,2442,2001
731,Passo do Sobrado,4314076,-29.748000000000,-52.274799999990,7664,2001
732,Passo Fundo,4314100,-28.257600000000,-52.409100000000,299487,2001
733,Paulo Bento,4314134,-27.697800000000,-52.426099999990,6572,2001
734,Paverama,4314159,-29.548500000000,-51.733899999990,4784,2001
735,Pedras Altas,4314175,-31.721699999990,-53.583799999990,43,2001
736,Pedro Osario,4314209,-31.864200000000,-52.818399999990,6385,2001
737,Pejuaara,4314308,-28.428300000000,-53.657899999990,3960,2001
738,Pelotas,4314407,-31.764900000000,-52.337100000000,410744,2001
739,Picada Cafa,4314423,-29.446400000000,-51.136699999990,10762,2001
740,Pinhal da Serra,4314464,-27.863399999990,-51.170200000000,880,2001
741,Pinhal Grande,4314472,-29.344999999990,-53.320700000000,3239,2001
742,Pinheirinho do Vale,4314498,-27.210899999990,-53.607999999990,2768,2001
743,Pinheiro Machado,4314506,-31.579400000000,-53.379800000000,39033,2001
744,Pirapa,4314555,-28.043900000000,-55.200099999990,2036,2001
745,Piratini,4314605,-31.447299999990,-53.097299999990,12161,2001
746,Planalto,4314704,-27.329699999990,-53.057500000000,9893,2001
747,Ponte Preta,4314787,-27.658700000000,-52.484800000000,1774,2001
748,Portao,4314803,-29.701499999990,-51.242899999990,58329,2001
749,Porto Alegre,4314902,-30.032778000000,-51.230000000000,2889072,2001
750,Porto Lucena,4315008,-27.856900000000,-55.009999999990,3203,2001
751,Porto Maua,4315057,-27.579599999990,-54.665700000000,2420,2001
752,Porto Vera Cruz,4315073,-27.740500000000,-54.899400000000,932,2001
753,Porto Xavier,4315107,-27.908200000000,-55.137900000000,10102,2001
754,Presidente Lucena,4315149,-29.517600000000,-51.179800000000,4115,2001
755,Protasio Alves,4315172,-28.757200000000,-51.475700000000,2587,2001
756,Putinga,4315206,-29.004500000000,-52.156900000000,4159,2001
757,Quaraa,4315305,-30.384000000000,-56.448300000000,28320,2001
758,Quatro Irmaos,4315313,-27.816299999990,-52.441899999990,1586,2001
759,Quevedos,4315321,-29.350400000000,-54.078899999990,1352,2001
760,Quinze de Novembro,4315354,-28.746500000000,-53.101100000000,2081,2001
761,Redentora,4315404,-27.664000000000,-53.640700000000,4694,2001
762,Relvado,4315453,-29.116399999990,-52.077800000000,2118,2001
763,Restinga Saca,4315503,-29.818800000000,-53.380699999990,2076,2001
764,Rio dos andios,4315552,-27.297300000000,-52.841700000000,1866,2001
765,Rio Grande,4315602,-32.034900000000,-52.107100000000,361760,2001
766,Rio Pardo,4315701,-29.988000000000,-52.371099999990,42331,2001
767,Riozinho,4315750,-29.638999999990,-50.448799999990,6213,2001
768,Roca Sales,4315800,-29.288399999990,-51.865800000000,21249,2001
769,Rolador,4315958,-28.257670000000,-54.818640000000,370,2001
770,Rolante,4316006,-29.646200000000,-50.581899999990,22294,2001
771,Ronda Alta,4316105,-27.775800000000,-52.805599999990,6865,2001
772,Rondinha,4316204,-27.831499999990,-52.908099999990,5515,2001
773,Roque Gonzales,4316303,-28.129700000000,-55.026600000000,4752,2001
774,Rosario do Sul,4316402,-30.251500000000,-54.922100000000,38316,2001
775,Sagrada Famalia,4316428,-27.708500000000,-53.135100000000,1175,2001
776,Saldanha Marinho,4316436,-28.394100000000,-53.097000000000,2163,2001
777,Salto do Jacua,4316451,-29.095099999990,-53.213299999990,11370,2001
778,Salvador das Missaes,4316477,-28.123300000000,-54.837299999990,2419,2001
779,Salvador do Sul,4316501,-29.438600000000,-51.507700000000,1671,2001
780,Sananduva,4316600,-27.946999999990,-51.807899999990,21942,2001
781,Santa Barbara do Sul,4316709,-28.365300000000,-53.250999999990,11433,2001
782,Santa Clara do Sul,4316758,-29.474699999990,-52.084299999990,154,2001
783,Santa Cruz do Sul,4316808,-29.722000000000,-52.434300000000,274490,2001
784,Santa Maria,4316907,-29.686800000000,-53.814999999990,336485,2001
785,Santa Maria do Herval,4316956,-29.490200000000,-50.991900000000,8529,2001
786,Santa Rosa,4317202,-27.870200000000,-54.479599999990,125627,2001
787,Santa Tereza,4317251,-29.165500000000,-51.735100000000,3336,2001
788,Santa Vitaria do Palmar,4317301,-33.524999999990,-53.371699999990,58607,2001
789,Santana da Boa Vista,4317004,-30.869700000000,-53.109999999990,3427,2001
790,Santana do Livramento,4317103,-30.887699999990,-55.531500000000,94514,2001
791,Santiago,4317400,-29.189699999990,-54.866599999990,48630,2001
792,Santo angelo,4317509,-28.300100000000,-54.266800000000,108395,2001
793,Santo Antanio da Patrulha,4317608,-29.826799999990,-50.517499999990,46820,2001
794,Santo Antanio das Missaes,4317707,-28.513999999990,-55.225099999990,2262,2001
795,Santo Antanio do Palma,4317558,-28.495600000000,-52.026699999990,2074,2001
796,Santo Augusto,4317806,-27.852599999990,-53.777600000000,20145,2001
797,Santo Cristo,4317905,-27.826300000000,-54.661999999990,24927,2001
798,Santo Expedito do Sul,4317954,-27.907399999990,-51.643300000000,986,2001
799,Sao Borja,4318002,-28.657800000000,-56.003599999990,109798,2001
800,Sao Domingos do Sul,4318051,-28.531199999990,-51.886000000000,1691,2001
801,Sao Francisco de Assis,4318101,-29.554700000000,-55.125300000000,14950,2001
802,Sao Francisco de Paula,4318200,-29.440400000000,-50.582799999990,23450,2001
803,Sao Gabriel,4318309,-30.333700000000,-54.321700000000,58657,2001
804,Sao Jeranimo,4318408,-29.971599999990,-51.725099999990,18904,2001
805,Sao Joao da Urtiga,4318424,-27.819500000000,-51.825699999990,3165,2001
806,Sao Joao do Polasine,4318432,-29.619399999990,-53.443899999990,36,2001
807,Sao Jorge,4318440,-28.498400000000,-51.706400000000,3816,2001
808,Sao Josa das Missaes,4318457,-27.778900000000,-53.122599999990,1684,2001
809,Sao Josa do Hortancio,4318481,-29.527999999990,-51.245000000000,8179,2001
810,Sao Josa do Inhacora,4318499,-27.725100000000,-54.127499999990,2010,2001
811,Sao Josa do Norte,4318507,-32.015099999990,-52.033099999990,11659,2001
812,Sao Josa do Ouro,4318606,-27.770700000000,-51.596600000000,8141,2001
813,Sao Josa dos Ausentes,4318622,-28.747599999990,-50.067700000000,2738,2001
814,Sao Leopoldo,4318705,-29.754500000000,-51.149799999990,409960,2001
815,Sao Lourenao do Sul,4318804,-31.356400000000,-51.971499999990,40995,2001
816,Sao Luiz Gonzaga,4318903,-28.411999999990,-54.955900000000,53512,2001
817,Sao Marcos,4319000,-28.967700000000,-51.069600000000,36733,2001
818,Sao Martinho,4319109,-27.711200000000,-53.969900000000,6454,2001
819,Sao Martinho da Serra,4319125,-29.539700000000,-53.859000000000,2474,2001
820,Sao Miguel das Missaes,4319158,-28.556000000000,-54.555900000000,229,2001
821,Sao Nicolau,4319208,-28.183399999990,-55.265400000000,3648,2001
822,Sao Paulo das Missaes,4319307,-28.019500000000,-54.940399999990,4630,2001
823,Sao Pedro das Missaes,4319364,-27.773219999990,-53.250470000000,359,2001
824,Sao Pedro do Butia,4319372,-28.124300000000,-54.892600000000,6006,2001
825,Sao Pedro do Sul,4319406,-29.620200000000,-54.185499999990,15324,2001
826,Sao Sebastiao do Caa,4319505,-29.588500000000,-51.374899999990,34432,2001
827,Sao Sepa,4319604,-30.164300000000,-53.560299999990,33589,2001
828,Sao Valentim,4319703,-27.558299999990,-52.523699999990,3454,2001
829,Sao Valentim do Sul,4319711,-29.045100000000,-51.768400000000,3060,2001
830,Sao Valario do Sul,4319737,-27.790600000000,-53.936799999990,1104,2001
831,Sao Vendelino,4319752,-29.372900000000,-51.367500000000,2731,2001
832,Sao Vicente do Sul,4319802,-29.688199999990,-54.682600000000,10349,2001
833,Sapiranga,4319901,-29.634899999990,-51.006500000000,129597,2001
834,Sapucaia do Sul,4320008,-29.827600000000,-51.145000000000,546695,2001
835,Sarandi,4320107,-27.942000000000,-52.923099999990,30631,2001
836,Seberi,4320206,-27.482900000000,-53.402600000000,8245,2001
837,Sede Nova,4320230,-27.636700000000,-53.949300000000,2895,2001
838,Segredo,4320263,-29.352300000000,-52.976700000000,2799,2001
839,Selbach,4320305,-28.629400000000,-52.949800000000,351,2001
840,Senador Salgado Filho,4320321,-28.025000000000,-54.550699999990,176,2001
841,Sentinela do Sul,4320354,-30.610700000000,-51.586199999990,10724,2001
842,Serafina Corraa,4320404,-28.712599999990,-51.935299999990,30610,2001
843,Sario,4320453,-29.390400000000,-52.268500000000,246,2001
844,Sertao,4320503,-27.979800000000,-52.258800000000,9824,2001
845,Sertao Santana,4320552,-30.456199999990,-51.601700000000,10759,2001
846,Sete de Setembro,4320578,-28.136199999990,-54.463700000000,1371,2001
847,Severiano de Almeida,4320602,-27.436199999990,-52.121699999990,4103,2001
848,Sinimbu,4320677,-29.535699999990,-52.530500000000,6579,2001
849,Sobradinho,4320701,-29.419400000000,-53.032600000000,16089,2001
850,Soledade,4320800,-28.830600000000,-52.513100000000,33630,2001
851,Tabaa,4320859,-29.643000000000,-51.682299999990,205,2001
852,Tapejara,4320909,-28.065200000000,-52.009700000000,35477,2001
853,Tapera,4321006,-28.627700000000,-52.861199999990,27746,2001
854,Tapes,4321105,-30.668299999990,-51.399099999990,24147,2001
855,Taquara,4321204,-29.650500000000,-50.775300000000,74589,2001
856,Taquari,4321303,-29.794300000000,-51.865299999990,94147,2001
857,Taquaruau do Sul,4321329,-27.400400000000,-53.470300000000,1857,2001
858,Tavares,4321352,-31.284300000000,-51.088000000000,4624,2001
859,Tenente Portela,4321402,-27.371099999990,-53.758499999990,13153,2001
860,Terra de Areia,4321436,-29.578199999990,-50.064399999990,8825,2001
861,Teutania,4321451,-29.448200000000,-51.804400000000,639,2001
862,Tiradentes do Sul,4321477,-27.402200000000,-54.081400000000,5143,2001
863,Toropi,4321493,-29.478200000000,-54.224400000000,2370,2001
864,Torres,4321501,-29.333400000000,-49.733300000000,61447,2001
865,Tramandaa,4321600,-29.984100000000,-50.132199999990,54466,2001
866,Travesseiro,4321626,-29.297699999990,-52.053199999990,45,2001
867,Tras Arroios,4321634,-27.500299999990,-52.144799999990,2794,2001
868,Tras Cachoeiras,4321667,-29.448699999990,-49.927500000000,10015,2001
869,Tras Coroas,4321709,-29.513700000000,-50.773899999990,38916,2001
870,Tras de Maio,4321808,-27.780000000000,-54.235700000000,30878,2001
871,Tras Forquilhas,4321832,-29.538399999990,-50.070799999990,2452,2001
872,Tras Palmeiras,4321857,-27.613900000000,-52.843699999990,3509,2001
873,Tras Passos,4321907,-27.455500000000,-53.929600000000,45941,2001
874,Trindade do Sul,4321956,-27.523900000000,-52.895600000000,3748,2001
875,Triunfo,4322004,-29.929099999990,-51.707500000000,1140942,2001
876,Tucunduva,4322103,-27.657299999990,-54.443899999990,6977,2001
877,Tunas,4322152,-29.103899999990,-52.953800000000,354,2001
878,Tupanci do Sul,4322186,-27.924099999990,-51.538300000000,1206,2001
879,Tupancireta,4322202,-29.085799999990,-53.844499999990,26353,2001
880,Tupandi,4322251,-29.477200000000,-51.417400000000,4943,2001
881,Tuparendi,4322301,-27.759799999990,-54.481400000000,10992,2001
882,Turuau,4322327,-31.417300000000,-52.170600000000,8042,2001
883,Ubiretama,4322343,-28.040400000000,-54.685899999990,1109,2001
884,Uniao da Serra,4322350,-28.783300000000,-52.023800000000,1131,2001
885,Unistalda,4322376,-29.039999999990,-55.151699999990,1283,2001
886,Uruguaiana,4322400,-29.761399999990,-57.085299999990,205726,2001
887,Vacaria,4322509,-28.507899999990,-50.941800000000,80555,2001
888,Vale do Sol,4322533,-29.596699999990,-52.683900000000,7616,2001
889,Vale Real,4322541,-29.391900000000,-51.255899999990,6829,2001
890,Vanini,4322558,-28.475800000000,-51.844700000000,1374,2001
891,Venancio Aires,4322608,-29.614300000000,-52.193199999990,133784,2001
892,Vera Cruz,4322707,-29.718399999990,-52.515200000000,27045,2001
893,Veranapolis,4322806,-28.931200000000,-51.551600000000,50508,2001
894,Vespasiano Correa,4322855,-29.065500000000,-51.862500000000,2421,2001
895,Viadutos,4322905,-27.571600000000,-52.021099999990,4966,2001
896,Viamao,4323002,-30.081900000000,-51.019399999990,198453,2001
897,Vicente Dutra,4323101,-27.160799999990,-53.402200000000,3129,2001
898,Victor Graeff,4323200,-28.563199999990,-52.749499999990,2531,2001
899,Vila Flores,4323309,-28.859800000000,-51.550400000000,8014,2001
900,Vila Maria,4323408,-28.535900000000,-52.148699999990,4650,2001
901,Vila Nova do Sul,4323457,-30.346100000000,-53.875999999990,221,2001
902,Vista Alegre,4323507,-27.368600000000,-53.491900000000,1490,2001
903,Vista Alegre do Prata,4323606,-28.805199999990,-51.794600000000,1643,2001
904,Vista Gaacha,4323705,-27.290199999990,-53.697400000000,3138,2001
905,Vitaria das Missaes,4323754,-28.351600000000,-54.503999999990,466,2001
906,Xangri-la,4323804,-29.806500000000,-50.051900000000,25621,2001
908,agua Santa,4300059,-28.167200000000,-52.030999999990,1137,1998
909,Agudo,4300109,-29.644700000000,-53.251500000000,35051,1998
910,Ajuricaba,4300208,-28.234200000000,-53.775700000000,4140,1998
911,Alecrim,4300307,-27.657900000000,-54.764899999990,2441,1998
912,Alegrete,4300406,-29.790199999990,-55.794899999990,109652,1998
913,Alegria,4300455,-27.834499999990,-54.055700000000,2386,1998
914,Alpestre,4300505,-27.250200000000,-53.034100000000,3338,1998
915,Alto Feliz,4300570,-29.391900000000,-51.312300000000,2660,1998
916,Alvorada,4300604,-29.991399999990,-51.080900000000,129595,1998
917,Amaral Ferrador,4300638,-30.875599999990,-52.250999999990,1730,1998
918,Ametista do Sul,4300646,-27.360700000000,-53.183000000000,7357,1998
919,Andra da Rocha,4300661,-28.628299999990,-51.579700000000,1891,1998
920,Anta Gorda,4300703,-28.969799999990,-52.010199999990,7145,1998
921,Antanio Prado,4300802,-28.856500000000,-51.288300000000,26079,1998
922,Arambara,4300851,-30.909300000000,-51.504600000000,6769,1998
923,Ararica,4300877,-29.616800000000,-50.929099999990,4335,1998
924,Aratiba,4300901,-27.397800000000,-52.297499999990,7641,1998
925,Arroio do Meio,4301008,-29.401399999990,-51.955700000000,41502,1998
926,Arroio do Sal,4301057,-29.543900000000,-49.889499999990,11850,1998
927,Arroio do Tigre,4301206,-29.334800000000,-53.096600000000,12644,1998
928,Arroio dos Ratos,4301107,-30.087500000000,-51.727499999990,11403,1998
929,Arroio Grande,4301305,-32.232700000000,-53.086199999990,29019,1998
930,Arvorezinha,4301404,-28.873699999990,-52.178100000000,8791,1998
931,Augusto Pestana,4301503,-28.517299999990,-53.988300000000,3736,1998
932,aurea,4301552,-27.693600000000,-52.050500000000,2719,1998
933,Baga,4301602,-31.329699999990,-54.099899999990,107220,1998
934,Balneario Pinhal,4301636,-30.241900000000,-50.233600000000,13366,1998
935,Barao,4301651,-29.372500000000,-51.494900000000,594,1998
936,Barao de Cotegipe,4301701,-27.620799999990,-52.379800000000,5056,1998
937,Barao do Triunfo,4301750,-30.389099999990,-51.738399999990,742,1998
938,Barra do Guarita,4301859,-27.192699999990,-53.710900000000,1655,1998
939,Barra do Quaraa,4301875,-30.202900000000,-57.549700000000,15435,1998
940,Barra do Ribeiro,4301909,-30.293900000000,-51.301400000000,13349,1998
941,Barra do Rio Azul,4301925,-27.406800000000,-52.408400000000,1774,1998
942,Barra Funda,4301958,-27.920500000000,-53.039099999990,3978,1998
943,Barracao,4301800,-27.673900000000,-51.458599999990,3382,1998
944,Barros Cassal,4302006,-29.094700000000,-52.583599999990,5089,1998
945,Benjamin Constant do Sul,4302055,-27.508600000000,-52.599499999990,898,1998
946,Bento Gonaalves,4302105,-29.166200000000,-51.516500000000,219870,1998
947,Boa Vista das Missaes,4302154,-27.667100000000,-53.310200000000,46,1998
948,Boa Vista do Burica,4302204,-27.669300000000,-54.108199999990,7876,1998
949,Boa Vista do Sul,4302253,-29.354399999990,-51.668700000000,1268,1998
950,Bom Jesus,4302303,-28.669699999990,-50.429499999990,10374,1998
951,Bom Princapio,4302352,-29.485600000000,-51.354799999990,20024,1998
952,Bom Progresso,4302378,-27.539899999990,-53.871600000000,1795,1998
953,Bom Retiro do Sul,4302402,-29.608599999990,-51.946399999990,13945,1998
954,Boqueirao do Leao,4302451,-29.304600000000,-52.428400000000,436,1998
955,Bossoroca,4302501,-28.729099999990,-54.903500000000,96,1998
956,Braga,4302600,-27.617300000000,-53.740499999990,2669,1998
957,Brochier,4302659,-29.550100000000,-51.594499999990,4147,1998
958,Butia,4302709,-30.117899999990,-51.960099999990,28112,1998
959,Caaapava do Sul,4302808,-30.514399999990,-53.482700000000,39506,1998
960,Cacequi,4302907,-29.888300000000,-54.822000000000,12602,1998
961,Cachoeira do Sul,4303004,-30.033000000000,-52.892800000000,92833,1998
962,Cachoeirinha,4303103,-29.947199999990,-51.101599999990,181808,1998
963,Cacique Doble,4303202,-27.766999999990,-51.659700000000,3273,1998
964,Caiaara,4303400,-27.279100000000,-53.425699999990,3104,1998
965,Camaqua,4303509,-30.848900000000,-51.804299999990,91258,1998
966,Camargo,4303558,-28.588000000000,-52.200299999990,1011,1998
967,Cambara do Sul,4303608,-29.047400000000,-50.146500000000,10866,1998
968,Campestre da Serra,4303673,-28.792600000000,-51.094099999990,2848,1998
969,Campina das Missaes,4303707,-27.988800000000,-54.841700000000,2648,1998
970,Campinas do Sul,4303806,-27.717400000000,-52.624800000000,8228,1998
971,Campo Bom,4303905,-29.674700000000,-51.060600000000,140967,1998
972,Campo Novo,4304002,-27.679200000000,-53.805199999990,6907,1998
973,Candelaria,4304200,-29.668399999990,-52.789499999990,29756,1998
974,Candido Godai,4304309,-27.951499999990,-54.751700000000,10823,1998
975,Candiota,4304358,-31.551500000000,-53.677300000000,63520,1998
976,Canela,4304408,-29.356000000000,-50.811900000000,68590,1998
977,Canguau,4304507,-31.396000000000,-52.678199999990,22304,1998
978,Canoas,4304606,-29.912800000000,-51.185699999990,494584,1998
979,Capao da Canoa,4304630,-29.639700000000,-49.959899999990,52533,1998
980,Capao do Leao,4304663,-31.756499999990,-52.488900000000,34257,1998
981,Capela de Santana,4304689,-29.696100000000,-51.328000000000,11347,1998
982,Capivari do Sul,4304671,-30.138200000000,-50.515099999990,11533,1998
983,Caraa,4304713,-29.786899999990,-50.431600000000,3241,1998
984,Carazinho,4304705,-28.295800000000,-52.793300000000,88824,1998
985,Carlos Barbosa,4304804,-29.296900000000,-51.502899999990,89496,1998
986,Carlos Gomes,4304853,-27.716699999990,-51.912100000000,924,1998
987,Casca,4304903,-28.560500000000,-51.981499999990,13727,1998
988,Caseiros,4304952,-28.258199999990,-51.686100000000,1957,1998
989,Catuape,4305009,-28.255400000000,-54.013199999990,12292,1998
990,Caxias do Sul,4305108,-29.162900000000,-51.179200000000,821044,1998
991,Centenario,4305116,-27.761600000000,-51.998399999990,1588,1998
992,Cerrito,4305124,-31.841899999990,-52.800400000000,4091,1998
993,Cerro Branco,4305132,-29.657000000000,-52.940600000000,29,1998
994,Cerro Grande,4305157,-27.610600000000,-53.167200000000,46,1998
995,Cerro Grande do Sul,4305173,-30.590499999990,-51.741799999990,3169,1998
996,Cerro Largo,4305207,-28.146200000000,-54.742800000000,24348,1998
997,Charqueadas,4305355,-29.962500000000,-51.628900000000,225679,1998
998,Charrua,4305371,-27.949300000000,-52.015000000000,653,1998
999,Chiapetta,4305405,-27.922999999990,-53.941899999990,3429,1998
1000,Chua,4305439,-33.686599999990,-53.459400000000,9045,1998
1001,Chuvisca,4305447,-30.750399999990,-51.973700000000,1650,1998
1002,Cidreira,4305454,-30.160399999990,-50.233800000000,23133,1998
1003,Ciraaco,4305504,-28.341899999990,-51.874099999990,6323,1998
1004,Colinas,4305587,-29.381499999990,-51.852600000000,2788,1998
1005,Constantina,4305801,-27.731999999990,-52.993800000000,9236,1998
1006,Coronel Bicaco,4305900,-27.719700000000,-53.702199999990,5826,1998
1007,Cotipora,4305959,-28.989100000000,-51.697099999990,4224,1998
1008,Coxilha,4305975,-28.128000000000,-52.302300000000,2860,1998
1009,Crissiumal,4306007,-27.499900000000,-54.099400000000,14923,1998
1010,Cristal,4306056,-31.004600000000,-52.043599999990,5767,1998
1011,Cruz Alta,4306106,-28.645000000000,-53.604799999990,90280,1998
1012,Cruzeiro do Sul,4306205,-29.514800000000,-51.992800000000,13987,1998
1013,David Canabarro,4306304,-28.384899999990,-51.848199999990,1794,1998
1014,Derrubadas,4306320,-27.264199999990,-53.864500000000,2248,1998
1015,Dezesseis de Novembro,4306353,-28.219000000000,-55.061700000000,2070,1998
1016,Dilermando de Aguiar,4306379,-29.705400000000,-54.212200000000,1741,1998
1017,Dois Irmaos,4306403,-29.583600000000,-51.089799999990,36186,1998
1018,Dois Irmaos das Missaes,4306429,-27.662099999990,-53.530400000000,18692,1998
1019,Dois Lajeados,4306452,-28.983000000000,-51.839599999990,2658,1998
1020,Dom Feliciano,4306502,-30.700399999990,-52.102600000000,3866,1998
1021,Dom Pedrito,4306601,-30.975600000000,-54.669400000000,47410,1998
1022,Dom Pedro de Alcantara,4306551,-29.363900000000,-49.853000000000,1985,1998
1023,Doutor Mauracio Cardoso,4306734,-27.510300000000,-54.357799999990,5477,1998
1024,Doutor Ricardo,4306759,-29.084000000000,-51.997100000000,1658,1998
1025,Eldorado do Sul,4306767,-30.084700000000,-51.618699999990,83618,1998
1026,Encantado,4306809,-29.235099999990,-51.870300000000,47792,1998
1027,Encruzilhada do Sul,4306908,-30.542999999990,-52.520400000000,15761,1998
1028,Engenho Velho,4306924,-27.706000000000,-52.914499999990,1368,1998
1029,Entre Rios do Sul,4306957,-27.529800000000,-52.734699999990,2436,1998
1030,Entre-ijuas,4306932,-28.368600000000,-54.268599999990,17041,1998
1031,Erebango,4306973,-27.854399999990,-52.300500000000,2677,1998
1032,Erechim,4307005,-27.636399999990,-52.269700000000,152420,1998
1033,Ernestina,4307054,-28.497699999990,-52.583599999990,5836,1998
1034,Erval Grande,4307203,-27.392600000000,-52.573999999990,3224,1998
1035,Erval Seco,4307302,-27.544300000000,-53.500500000000,4483,1998
1036,Esmeralda,4307401,-28.051800000000,-51.193300000000,2682,1998
1037,Esperanaa do Sul,4307450,-27.360299999990,-53.989100000000,2107,1998
1038,Espumoso,4307500,-28.728600000000,-52.846100000000,26013,1998
1039,Estaaao,4307559,-27.913499999990,-52.263500000000,16634,1998
1040,Estancia Velha,4307609,-29.653500000000,-51.184300000000,93805,1998
1041,Esteio,4307708,-29.852000000000,-51.184100000000,256533,1998
1042,Estrela,4307807,-29.501600000000,-51.960500000000,66081,1998
1043,Estrela Velha,4307815,-29.171299999990,-53.163899999990,0,1998
1044,Euganio de Castro,4307831,-28.531500000000,-54.150599999990,2560,1998
1045,Fagundes Varela,4307864,-28.879400000000,-51.701400000000,3114,1998
1046,Farroupilha,4307906,-29.222700000000,-51.341900000000,120992,1998
1047,Faxinal do Soturno,4308003,-29.578800000000,-53.448399999990,21991,1998
1048,Faxinalzinho,4308052,-27.423800000000,-52.678899999990,1876,1998
1049,Fazenda Vilanova,4308078,-29.588500000000,-51.821700000000,2011,1998
1050,Feliz,4308102,-29.452700000000,-51.303199999990,22257,1998
1051,Flores da Cunha,4308201,-29.026199999990,-51.187500000000,49268,1998
1052,Formigueiro,4308409,-30.003499999990,-53.495899999990,5305,1998
1053,Fortaleza dos Valos,4308458,-28.798600000000,-53.224899999990,2966,1998
1054,Frederico Westphalen,4308508,-27.358599999990,-53.395800000000,32298,1998
1055,Garibaldi,4308607,-29.259000000000,-51.535200000000,75251,1998
1056,Garruchos,4308656,-28.194400000000,-55.638300000000,1641,1998
1057,Gaurama,4308706,-27.585599999990,-52.091500000000,6863,1998
1058,General Camara,4308805,-29.903199999990,-51.761200000000,5493,1998
1059,Gentil,4308854,-28.431600000000,-52.033700000000,478,1998
1060,Getalio Vargas,4308904,-27.891100000000,-52.229399999990,23792,1998
1061,Girua,4309001,-28.029699999990,-54.351700000000,24307,1998
1062,Glorinha,4309050,-29.879799999990,-50.773400000000,6279,1998
1063,Gramado,4309100,-29.373300000000,-50.876199999990,49693,1998
1064,Gramado dos Loureiros,4309126,-27.442900000000,-52.914900000000,522,1998
1065,Gramado Xavier,4309159,-29.270600000000,-52.579500000000,549,1998
1066,Gravataa,4309209,-29.941299999990,-50.986899999990,459638,1998
1067,Guabiju,4309258,-28.542100000000,-51.694800000000,1553,1998
1068,Guaaba,4309308,-30.108599999990,-51.323300000000,191056,1998
1069,Guapora,4309407,-28.839900000000,-51.889499999990,30385,1998
1070,Guarani das Missaes,4309506,-28.149100000000,-54.562899999990,10417,1998
1071,Harmonia,4309555,-29.545600000000,-51.418500000000,5008,1998
1072,Herval,4307104,-32.024000000000,-53.394399999990,4647,1998
1073,Herveiras,4309571,-29.455200000000,-52.655299999990,995,1998
1074,Horizontina,4309605,-27.628200000000,-54.305300000000,39793,1998
1075,Hulha Negra,4309654,-31.406700000000,-53.866700000000,14922,1998
1076,Humaita,4309704,-27.569099999990,-53.969499999990,5563,1998
1077,Ibarama,4309753,-29.420300000000,-53.129500000000,2218,1998
1078,Ibiraiaras,4309902,-28.374099999990,-51.637700000000,6367,1998
1079,Ibirapuita,4309951,-28.624700000000,-52.515799999990,3936,1998
1080,Ibiruba,4310009,-28.630199999990,-53.096100000000,33077,1998
1081,Igrejinha,4310108,-29.569299999990,-50.791899999990,38974,1998
1082,Ijua,4310207,-28.388100000000,-53.920000000000,111195,1998
1083,Ilapolis,4310306,-28.928200000000,-52.125799999990,3597,1998
1084,Imba,4310330,-29.975300000000,-50.128100000000,30438,1998
1085,Imigrante,4310363,-29.350800000000,-51.774700000000,6227,1998
1086,Independancia,4310405,-27.835400000000,-54.188600000000,8977,1998
1087,Inhacora,4310413,-27.875200000000,-54.015000000000,1888,1998
1088,Ipa,4310439,-28.817100000000,-51.285899999990,4584,1998
1089,Ipiranga do Sul,4310462,-27.940400000000,-52.427100000000,1792,1998
1090,Iraa,4310504,-27.195100000000,-53.254300000000,5567,1998
1091,Itaara,4310538,-29.601299999990,-53.772500000000,6239,1998
1092,Itacurubi,4310553,-28.791300000000,-55.244700000000,3139,1998
1093,Itapuca,4310579,-28.776800000000,-52.169300000000,69,1998
1094,Itaqui,4310603,-29.131000000000,-56.551499999990,109337,1998
1095,Itatiba do Sul,4310702,-27.384599999990,-52.453800000000,2984,1998
1096,Ivora,4310751,-29.523199999990,-53.584200000000,406,1998
1097,Ivoti,4310801,-29.599499999990,-51.153300000000,33042,1998
1098,Jacutinga,4310900,-27.729099999990,-52.537199999990,4331,1998
1099,Jaguarao,4311007,-32.560400000000,-53.377000000000,35881,1998
1100,Jaguari,4311106,-29.493600000000,-54.703000000000,10478,1998
1101,Jaquirana,4311122,-28.881100000000,-50.363700000000,3891,1998
1102,Jari,4311130,-29.292200000000,-54.223700000000,259,1998
1103,Jaia,4311155,-28.643500000000,-54.114100000000,4548,1998
1104,Jalio de Castilhos,4311205,-29.229800000000,-53.677199999990,20233,1998
1105,Lagoa dos Tras Cantos,4311270,-28.567599999990,-52.861800000000,823,1998
1106,Lagoa Vermelha,4311304,-28.209299999990,-51.524799999990,30078,1998
1107,Lagoao,4311254,-29.234800000000,-52.799700000000,270,1998
1108,Lajeado,4311403,-29.459099999990,-51.964399999990,286128,1998
1109,Lajeado do Bugre,4311429,-27.691299999990,-53.181800000000,241,1998
1110,Lavras do Sul,4311502,-30.807099999990,-53.893099999990,5348,1998
1111,Liberato Salzano,4311601,-27.600999999990,-53.075299999990,3203,1998
1112,Lindolfo Collor,4311627,-29.585899999990,-51.214100000000,8914,1998
1113,Linha Nova,4311643,-29.467900000000,-51.200299999990,1095,1998
1114,Maaambara,4311718,-29.144500000000,-56.067399999990,5203,1998
1115,Machadinho,4311700,-27.566700000000,-51.666800000000,3705,1998
1116,Mampituba,4311734,-29.213600000000,-49.931100000000,1375,1998
1117,Manoel Viana,4311759,-29.585899999990,-55.484099999990,4698,1998
1118,Maquina,4311775,-29.679800000000,-50.207900000000,5968,1998
1119,Marata,4311791,-29.545700000000,-51.557299999990,1940,1998
1120,Marau,4311809,-28.449800000000,-52.198599999990,94290,1998
1121,Marcelino Ramos,4311908,-27.467600000000,-51.909500000000,6723,1998
1122,Mariana Pimentel,4311981,-30.353100000000,-51.580300000000,2046,1998
1123,Mariano Moro,4312005,-27.356800000000,-52.146700000000,2176,1998
1124,Mata,4312104,-29.564900000000,-54.464100000000,4015,1998
1125,Mato Leitao,4312153,-29.528500000000,-52.127800000000,4259,1998
1126,Maximiliano de Almeida,4312203,-27.632500000000,-51.802100000000,5117,1998
1127,Minas do Leao,4312252,-30.134599999990,-52.042299999990,7436,1998
1128,Miraguaa,4312302,-27.497000000000,-53.689100000000,3065,1998
1129,Montauri,4312351,-28.646200000000,-52.076700000000,908,1998
1130,Monte Alegre dos Campos,4312377,-28.680499999990,-50.783400000000,1140,1998
1131,Monte Belo do Sul,4312385,-29.160699999990,-51.633299999990,2467,1998
1132,Montenegro,4312401,-29.682400000000,-51.467900000000,95531,1998
1133,Mormaao,4312427,-28.696800000000,-52.699900000000,1163,1998
1134,Morrinhos do Sul,4312443,-29.357800000000,-49.932800000000,2727,1998
1135,Morro Redondo,4312450,-31.588699999990,-52.626100000000,5156,1998
1136,Morro Reuter,4312476,-29.537900000000,-51.081099999990,7731,1998
1137,Mostardas,4312500,-31.105399999990,-50.916699999990,19027,1998
1138,Muaum,4312609,-29.163000000000,-51.871400000000,8165,1998
1139,Muitos Capaes,4312617,-28.313199999990,-51.183599999990,2638,1998
1140,Muliterno,4312625,-28.325299999990,-51.769700000000,150,1998
1141,Nao-Me-Toque,4312658,-28.454799999990,-52.818199999990,21476,1998
1142,Nonoai,4312708,-27.368900000000,-52.775599999990,11054,1998
1143,Nova Alvorada,4312757,-28.682200000000,-52.163100000000,2292,1998
1144,Nova Araaa,4312807,-28.653700000000,-51.745800000000,6893,1998
1145,Nova Bassano,4312906,-28.729099999990,-51.707200000000,19647,1998
1146,Nova Boa Vista,4312955,-27.992599999990,-52.978400000000,1983,1998
1147,Nova Brascia,4313003,-29.218200000000,-52.031900000000,4360,1998
1148,Nova Candelaria,4313011,-27.613700000000,-54.107399999990,2831,1998
1149,Nova Esperanaa do Sul,4313037,-29.406600000000,-54.829300000000,6801,1998
1150,Nova Hartz,4313060,-29.580700000000,-50.905099999990,18655,1998
1151,Nova Padua,4313086,-29.027500000000,-51.309800000000,2745,1998
1152,Nova Petrapolis,4313201,-29.374099999990,-51.113500000000,29145,1998
1153,Nova Prata,4313300,-28.779900000000,-51.611300000000,54824,1998
1154,Nova Roma do Sul,4313359,-28.988199999990,-51.409500000000,3447,1998
1155,Nova Santa Rita,4313375,-29.852499999990,-51.283700000000,58837,1998
1156,Novo Barreiro,4313490,-27.907699999990,-53.110300000000,1983,1998
1157,Novo Cabrais,4313391,-29.733799999990,-52.948900000000,317,1998
1158,Novo Hamburgo,4313409,-29.687600000000,-51.132800000000,443688,1998
1159,Novo Machado,4313425,-27.576499999990,-54.503599999990,4764,1998
1160,Osario,4313508,-29.888100000000,-50.266700000000,63578,1998
1161,Paim Filho,4313607,-27.707500000000,-51.762999999990,3644,1998
1162,Palmares do Sul,4313656,-30.253499999990,-50.510300000000,24842,1998
1163,Palmeira das Missaes,4313706,-27.900600000000,-53.313400000000,33742,1998
1164,Palmitinho,4313805,-27.359600000000,-53.558000000000,4871,1998
1165,Panambi,4313904,-28.283300000000,-53.502299999990,53572,1998
1166,Pantano Grande,4313953,-30.190100000000,-52.372900000000,14858,1998
1167,Paraa,4314001,-28.596399999990,-51.789600000000,10677,1998
1168,Paraaso do Sul,4314027,-29.671700000000,-53.143999999990,6281,1998
1169,Pareci Novo,4314035,-29.636500000000,-51.397399999990,3290,1998
1170,Paroba,4314050,-29.624300000000,-50.831200000000,72395,1998
1171,Passa Sete,4314068,-29.457699999990,-52.959899999990,1583,1998
1172,Passo do Sobrado,4314076,-29.748000000000,-52.274799999990,6546,1998
1173,Passo Fundo,4314100,-28.257600000000,-52.409100000000,255730,1998
1174,Paverama,4314159,-29.548500000000,-51.733899999990,2934,1998
1175,Pedro Osario,4314209,-31.864200000000,-52.818399999990,7032,1998
1176,Pejuaara,4314308,-28.428300000000,-53.657899999990,3892,1998
1177,Pelotas,4314407,-31.764900000000,-52.337100000000,378079,1998
1178,Picada Cafa,4314423,-29.446400000000,-51.136699999990,10513,1998
1179,Pinhal Grande,4314472,-29.344999999990,-53.320700000000,2737,1998
1180,Pinheirinho do Vale,4314498,-27.210899999990,-53.607999999990,2146,1998
1181,Pinheiro Machado,4314506,-31.579400000000,-53.379800000000,55977,1998
1182,Pirapa,4314555,-28.043900000000,-55.200099999990,1783,1998
1183,Piratini,4314605,-31.447299999990,-53.097299999990,10224,1998
1184,Planalto,4314704,-27.329699999990,-53.057500000000,8213,1998
1185,Ponte Preta,4314787,-27.658700000000,-52.484800000000,1522,1998
1186,Portao,4314803,-29.701499999990,-51.242899999990,46778,1998
1187,Porto Alegre,4314902,-30.032778000000,-51.230000000000,2721112,1998
1188,Porto Lucena,4315008,-27.856900000000,-55.009999999990,3166,1998
1189,Porto Maua,4315057,-27.579599999990,-54.665700000000,2090,1998
1190,Porto Vera Cruz,4315073,-27.740500000000,-54.899400000000,809,1998
1191,Porto Xavier,4315107,-27.908200000000,-55.137900000000,8886,1998
1192,Presidente Lucena,4315149,-29.517600000000,-51.179800000000,3227,1998
1193,Protasio Alves,4315172,-28.757200000000,-51.475700000000,1806,1998
1194,Putinga,4315206,-29.004500000000,-52.156900000000,3058,1998
1195,Quaraa,4315305,-30.384000000000,-56.448300000000,21632,1998
1196,Quevedos,4315321,-29.350400000000,-54.078899999990,853,1998
1197,Quinze de Novembro,4315354,-28.746500000000,-53.101100000000,1727,1998
1198,Redentora,4315404,-27.664000000000,-53.640700000000,4217,1998
1199,Relvado,4315453,-29.116399999990,-52.077800000000,1792,1998
1200,Restinga Saca,4315503,-29.818800000000,-53.380699999990,1669,1998
1201,Rio dos andios,4315552,-27.297300000000,-52.841700000000,1752,1998
1202,Rio Grande,4315602,-32.034900000000,-52.107100000000,352264,1998
1203,Rio Pardo,4315701,-29.988000000000,-52.371099999990,37241,1998
1204,Riozinho,4315750,-29.638999999990,-50.448799999990,4732,1998
1205,Roca Sales,4315800,-29.288399999990,-51.865800000000,16542,1998
1206,Rolante,4316006,-29.646200000000,-50.581899999990,20713,1998
1207,Ronda Alta,4316105,-27.775800000000,-52.805599999990,6255,1998
1208,Rondinha,4316204,-27.831499999990,-52.908099999990,5051,1998
1209,Roque Gonzales,4316303,-28.129700000000,-55.026600000000,4944,1998
1210,Rosario do Sul,4316402,-30.251500000000,-54.922100000000,32781,1998
1211,Sagrada Famalia,4316428,-27.708500000000,-53.135100000000,961,1998
1212,Saldanha Marinho,4316436,-28.394100000000,-53.097000000000,2174,1998
1213,Salto do Jacua,4316451,-29.095099999990,-53.213299999990,9025,1998
1214,Salvador das Missaes,4316477,-28.123300000000,-54.837299999990,2040,1998
1215,Salvador do Sul,4316501,-29.438600000000,-51.507700000000,1220,1998
1216,Sananduva,4316600,-27.946999999990,-51.807899999990,19928,1998
1217,Santa Barbara do Sul,4316709,-28.365300000000,-53.250999999990,10381,1998
1218,Santa Clara do Sul,4316758,-29.474699999990,-52.084299999990,103,1998
1219,Santa Cruz do Sul,4316808,-29.722000000000,-52.434300000000,245799,1998
1220,Santa Maria,4316907,-29.686800000000,-53.814999999990,298252,1998
1221,Santa Maria do Herval,4316956,-29.490200000000,-50.991900000000,6155,1998
1222,Santa Rosa,4317202,-27.870200000000,-54.479599999990,108958,1998
1223,Santa Tereza,4317251,-29.165500000000,-51.735100000000,2830,1998
1224,Santa Vitaria do Palmar,4317301,-33.524999999990,-53.371699999990,40964,1998
1225,Santana da Boa Vista,4317004,-30.869700000000,-53.109999999990,3152,1998
1226,Santana do Livramento,4317103,-30.887699999990,-55.531500000000,82274,1998
1227,Santiago,4317400,-29.189699999990,-54.866599999990,42284,1998
1228,Santo angelo,4317509,-28.300100000000,-54.266800000000,97957,1998
1229,Santo Antanio da Patrulha,4317608,-29.826799999990,-50.517499999990,40983,1998
1230,Santo Antanio das Missaes,4317707,-28.513999999990,-55.225099999990,1663,1998
1231,Santo Antanio do Palma,4317558,-28.495600000000,-52.026699999990,1642,1998
1232,Santo Augusto,4317806,-27.852599999990,-53.777600000000,18756,1998
1233,Santo Cristo,4317905,-27.826300000000,-54.661999999990,20940,1998
1234,Santo Expedito do Sul,4317954,-27.907399999990,-51.643300000000,775,1998
1235,Sao Borja,4318002,-28.657800000000,-56.003599999990,96217,1998
1236,Sao Domingos do Sul,4318051,-28.531199999990,-51.886000000000,1424,1998
1237,Sao Francisco de Assis,4318101,-29.554700000000,-55.125300000000,11743,1998
1238,Sao Francisco de Paula,4318200,-29.440400000000,-50.582799999990,22526,1998
1239,Sao Gabriel,4318309,-30.333700000000,-54.321700000000,50329,1998
1240,Sao Jeranimo,4318408,-29.971599999990,-51.725099999990,17015,1998
1241,Sao Joao da Urtiga,4318424,-27.819500000000,-51.825699999990,2746,1998
1242,Sao Joao do Polasine,4318432,-29.619399999990,-53.443899999990,46,1998
1243,Sao Jorge,4318440,-28.498400000000,-51.706400000000,3014,1998
1244,Sao Josa das Missaes,4318457,-27.778900000000,-53.122599999990,1294,1998
1245,Sao Josa do Hortancio,4318481,-29.527999999990,-51.245000000000,6433,1998
1246,Sao Josa do Inhacora,4318499,-27.725100000000,-54.127499999990,1621,1998
1247,Sao Josa do Norte,4318507,-32.015099999990,-52.033099999990,8243,1998
1248,Sao Josa do Ouro,4318606,-27.770700000000,-51.596600000000,7402,1998
1249,Sao Josa dos Ausentes,4318622,-28.747599999990,-50.067700000000,2484,1998
1250,Sao Leopoldo,4318705,-29.754500000000,-51.149799999990,356876,1998
1251,Sao Lourenao do Sul,4318804,-31.356400000000,-51.971499999990,38145,1998
1252,Sao Luiz Gonzaga,4318903,-28.411999999990,-54.955900000000,57416,1998
1253,Sao Marcos,4319000,-28.967700000000,-51.069600000000,32758,1998
1254,Sao Martinho,4319109,-27.711200000000,-53.969900000000,6279,1998
1255,Sao Martinho da Serra,4319125,-29.539700000000,-53.859000000000,1955,1998
1256,Sao Miguel das Missaes,4319158,-28.556000000000,-54.555900000000,246,1998
1257,Sao Nicolau,4319208,-28.183399999990,-55.265400000000,3442,1998
1258,Sao Paulo das Missaes,4319307,-28.019500000000,-54.940399999990,4002,1998
1259,Sao Pedro do Butia,4319372,-28.124300000000,-54.892600000000,5790,1998
1260,Sao Pedro do Sul,4319406,-29.620200000000,-54.185499999990,11652,1998
1261,Sao Sebastiao do Caa,4319505,-29.588500000000,-51.374899999990,28385,1998
1262,Sao Sepa,4319604,-30.164300000000,-53.560299999990,28989,1998
1263,Sao Valentim,4319703,-27.558299999990,-52.523699999990,3506,1998
1264,Sao Valentim do Sul,4319711,-29.045100000000,-51.768400000000,2458,1998
1265,Sao Valario do Sul,4319737,-27.790600000000,-53.936799999990,1024,1998
1266,Sao Vendelino,4319752,-29.372900000000,-51.367500000000,1765,1998
1267,Sao Vicente do Sul,4319802,-29.688199999990,-54.682600000000,7763,1998
1268,Sapiranga,4319901,-29.634899999990,-51.006500000000,102464,1998
1269,Sapucaia do Sul,4320008,-29.827600000000,-51.145000000000,493489,1998
1270,Sarandi,4320107,-27.942000000000,-52.923099999990,26529,1998
1271,Seberi,4320206,-27.482900000000,-53.402600000000,7356,1998
1272,Sede Nova,4320230,-27.636700000000,-53.949300000000,2587,1998
1273,Segredo,4320263,-29.352300000000,-52.976700000000,1981,1998
1274,Selbach,4320305,-28.629400000000,-52.949800000000,341,1998
1275,Senador Salgado Filho,4320321,-28.025000000000,-54.550699999990,167,1998
1276,Sentinela do Sul,4320354,-30.610700000000,-51.586199999990,8000,1998
1277,Serafina Corraa,4320404,-28.712599999990,-51.935299999990,28232,1998
1278,Sario,4320453,-29.390400000000,-52.268500000000,158,1998
1279,Sertao,4320503,-27.979800000000,-52.258800000000,8296,1998
1280,Sertao Santana,4320552,-30.456199999990,-51.601700000000,7494,1998
1281,Sete de Setembro,4320578,-28.136199999990,-54.463700000000,1039,1998
1282,Severiano de Almeida,4320602,-27.436199999990,-52.121699999990,3548,1998
1283,Sinimbu,4320677,-29.535699999990,-52.530500000000,5344,1998
1284,Sobradinho,4320701,-29.419400000000,-53.032600000000,13164,1998
1285,Soledade,4320800,-28.830600000000,-52.513100000000,30246,1998
1286,Tabaa,4320859,-29.643000000000,-51.682299999990,137,1998
1287,Tapejara,4320909,-28.065200000000,-52.009700000000,26576,1998
1288,Tapera,4321006,-28.627700000000,-52.861199999990,23727,1998
1289,Tapes,4321105,-30.668299999990,-51.399099999990,20086,1998
1290,Taquara,4321204,-29.650500000000,-50.775300000000,63582,1998
1291,Taquari,4321303,-29.794300000000,-51.865299999990,81330,1998
1292,Taquaruau do Sul,4321329,-27.400400000000,-53.470300000000,1524,1998
1293,Tavares,4321352,-31.284300000000,-51.088000000000,3343,1998
1294,Tenente Portela,4321402,-27.371099999990,-53.758499999990,12630,1998
1295,Terra de Areia,4321436,-29.578199999990,-50.064399999990,10433,1998
1296,Teutania,4321451,-29.448200000000,-51.804400000000,422,1998
1297,Tiradentes do Sul,4321477,-27.402200000000,-54.081400000000,4306,1998
1298,Toropi,4321493,-29.478200000000,-54.224400000000,1454,1998
1299,Torres,4321501,-29.333400000000,-49.733300000000,52459,1998
1300,Tramandaa,4321600,-29.984100000000,-50.132199999990,48316,1998
1301,Travesseiro,4321626,-29.297699999990,-52.053199999990,16,1998
1302,Tras Arroios,4321634,-27.500299999990,-52.144799999990,2478,1998
1303,Tras Cachoeiras,4321667,-29.448699999990,-49.927500000000,8535,1998
1304,Tras Coroas,4321709,-29.513700000000,-50.773899999990,29718,1998
1305,Tras de Maio,4321808,-27.780000000000,-54.235700000000,32548,1998
1306,Tras Forquilhas,4321832,-29.538399999990,-50.070799999990,2150,1998
1307,Tras Palmeiras,4321857,-27.613900000000,-52.843699999990,2913,1998
1308,Tras Passos,4321907,-27.455500000000,-53.929600000000,39789,1998
1309,Trindade do Sul,4321956,-27.523900000000,-52.895600000000,3128,1998
1310,Triunfo,4322004,-29.929099999990,-51.707500000000,1005745,1998
1311,Tucunduva,4322103,-27.657299999990,-54.443899999990,6839,1998
1312,Tunas,4322152,-29.103899999990,-52.953800000000,197,1998
1313,Tupanci do Sul,4322186,-27.924099999990,-51.538300000000,1066,1998
1314,Tupancireta,4322202,-29.085799999990,-53.844499999990,23553,1998
1315,Tupandi,4322251,-29.477200000000,-51.417400000000,2881,1998
1316,Tuparendi,4322301,-27.759799999990,-54.481400000000,10851,1998
1317,Turuau,4322327,-31.417300000000,-52.170600000000,6550,1998
1318,Ubiretama,4322343,-28.040400000000,-54.685899999990,954,1998
1319,Uniao da Serra,4322350,-28.783300000000,-52.023800000000,985,1998
1320,Unistalda,4322376,-29.039999999990,-55.151699999990,972,1998
1321,Uruguaiana,4322400,-29.761399999990,-57.085299999990,171375,1998
1322,Vacaria,4322509,-28.507899999990,-50.941800000000,75723,1998
1323,Vale do Sol,4322533,-29.596699999990,-52.683900000000,6083,1998
1324,Vale Real,4322541,-29.391900000000,-51.255899999990,5977,1998
1325,Vanini,4322558,-28.475800000000,-51.844700000000,1158,1998
1326,Venancio Aires,4322608,-29.614300000000,-52.193199999990,131822,1998
1327,Vera Cruz,4322707,-29.718399999990,-52.515200000000,24976,1998
1328,Veranapolis,4322806,-28.931200000000,-51.551600000000,42842,1998
1329,Vespasiano Correa,4322855,-29.065500000000,-51.862500000000,1824,1998
1330,Viadutos,4322905,-27.571600000000,-52.021099999990,4285,1998
1331,Viamao,4323002,-30.081900000000,-51.019399999990,166387,1998
1332,Vicente Dutra,4323101,-27.160799999990,-53.402200000000,2830,1998
1333,Victor Graeff,4323200,-28.563199999990,-52.749499999990,3748,1998
1334,Vila Flores,4323309,-28.859800000000,-51.550400000000,5943,1998
1335,Vila Maria,4323408,-28.535900000000,-52.148699999990,3906,1998
1336,Vila Nova do Sul,4323457,-30.346100000000,-53.875999999990,112,1998
1337,Vista Alegre,4323507,-27.368600000000,-53.491900000000,1224,1998
1338,Vista Alegre do Prata,4323606,-28.805199999990,-51.794600000000,1337,1998
1339,Vista Gaacha,4323705,-27.290199999990,-53.697400000000,2625,1998
1340,Vitaria das Missaes,4323754,-28.351600000000,-54.503999999990,377,1998
1341,Xangri-la,4323804,-29.806500000000,-50.051900000000,22568,1998
1343,agua Santa,4300059,-28.167200000000,-52.030999999990,1283,2000
1344,Agudo,4300109,-29.644700000000,-53.251500000000,54269,2000
1345,Ajuricaba,4300208,-28.234200000000,-53.775700000000,4531,2000
1346,Alecrim,4300307,-27.657900000000,-54.764899999990,2687,2000
1347,Alegrete,4300406,-29.790199999990,-55.794899999990,138319,2000
1348,Alegria,4300455,-27.834499999990,-54.055700000000,2503,2000
1349,Alpestre,4300505,-27.250200000000,-53.034100000000,5414,2000
1350,Alto Feliz,4300570,-29.391900000000,-51.312300000000,3284,2000
1351,Alvorada,4300604,-29.991399999990,-51.080900000000,138389,2000
1352,Amaral Ferrador,4300638,-30.875599999990,-52.250999999990,1955,2000
1353,Ametista do Sul,4300646,-27.360700000000,-53.183000000000,9945,2000
1354,Andra da Rocha,4300661,-28.628299999990,-51.579700000000,1944,2000
1355,Anta Gorda,4300703,-28.969799999990,-52.010199999990,7960,2000
1356,Antanio Prado,4300802,-28.856500000000,-51.288300000000,29753,2000
1357,Arambara,4300851,-30.909300000000,-51.504600000000,7261,2000
1358,Ararica,4300877,-29.616800000000,-50.929099999990,6575,2000
1359,Aratiba,4300901,-27.397800000000,-52.297499999990,7314,2000
1360,Arroio do Meio,4301008,-29.401399999990,-51.955700000000,52416,2000
1361,Arroio do Sal,4301057,-29.543900000000,-49.889499999990,13560,2000
1362,Arroio do Tigre,4301206,-29.334800000000,-53.096600000000,14579,2000
1363,Arroio dos Ratos,4301107,-30.087500000000,-51.727499999990,13698,2000
1364,Arroio Grande,4301305,-32.232700000000,-53.086199999990,35076,2000
1365,Arvorezinha,4301404,-28.873699999990,-52.178100000000,9530,2000
1366,Augusto Pestana,4301503,-28.517299999990,-53.988300000000,3864,2000
1367,aurea,4301552,-27.693600000000,-52.050500000000,2844,2000
1368,Baga,4301602,-31.329699999990,-54.099899999990,124030,2000
1369,Balneario Pinhal,4301636,-30.241900000000,-50.233600000000,14936,2000
1370,Barao,4301651,-29.372500000000,-51.494900000000,656,2000
1371,Barao de Cotegipe,4301701,-27.620799999990,-52.379800000000,5557,2000
1372,Barao do Triunfo,4301750,-30.389099999990,-51.738399999990,920,2000
1373,Barra do Guarita,4301859,-27.192699999990,-53.710900000000,1812,2000
1374,Barra do Quaraa,4301875,-30.202900000000,-57.549700000000,20173,2000
1375,Barra do Ribeiro,4301909,-30.293900000000,-51.301400000000,15215,2000
1376,Barra do Rio Azul,4301925,-27.406800000000,-52.408400000000,2100,2000
1377,Barra Funda,4301958,-27.920500000000,-53.039099999990,5085,2000
1378,Barracao,4301800,-27.673900000000,-51.458599999990,3897,2000
1379,Barros Cassal,4302006,-29.094700000000,-52.583599999990,6148,2000
1380,Benjamin Constant do Sul,4302055,-27.508600000000,-52.599499999990,952,2000
1381,Bento Gonaalves,4302105,-29.166200000000,-51.516500000000,250829,2000
1382,Boa Vista das Missaes,4302154,-27.667100000000,-53.310200000000,57,2000
1383,Boa Vista do Burica,4302204,-27.669300000000,-54.108199999990,8778,2000
1384,Boa Vista do Sul,4302253,-29.354399999990,-51.668700000000,1576,2000
1385,Bom Jesus,4302303,-28.669699999990,-50.429499999990,11740,2000
1386,Bom Princapio,4302352,-29.485600000000,-51.354799999990,22507,2000
1387,Bom Progresso,4302378,-27.539899999990,-53.871600000000,2070,2000
1388,Bom Retiro do Sul,4302402,-29.608599999990,-51.946399999990,16623,2000
1389,Boqueirao do Leao,4302451,-29.304600000000,-52.428400000000,492,2000
1390,Bossoroca,4302501,-28.729099999990,-54.903500000000,154,2000
1391,Braga,4302600,-27.617300000000,-53.740499999990,2827,2000
1392,Brochier,4302659,-29.550100000000,-51.594499999990,4808,2000
1393,Butia,4302709,-30.117899999990,-51.960099999990,32231,2000
1394,Caaapava do Sul,4302808,-30.514399999990,-53.482700000000,44444,2000
1395,Cacequi,4302907,-29.888300000000,-54.822000000000,14939,2000
1396,Cachoeira do Sul,4303004,-30.033000000000,-52.892800000000,106037,2000
1397,Cachoeirinha,4303103,-29.947199999990,-51.101599999990,209820,2000
1398,Cacique Doble,4303202,-27.766999999990,-51.659700000000,3039,2000
1399,Caiaara,4303400,-27.279100000000,-53.425699999990,3781,2000
1400,Camaqua,4303509,-30.848900000000,-51.804299999990,117291,2000
1401,Camargo,4303558,-28.588000000000,-52.200299999990,1490,2000
1402,Cambara do Sul,4303608,-29.047400000000,-50.146500000000,13640,2000
1403,Campestre da Serra,4303673,-28.792600000000,-51.094099999990,3298,2000
1404,Campina das Missaes,4303707,-27.988800000000,-54.841700000000,3096,2000
1405,Campinas do Sul,4303806,-27.717400000000,-52.624800000000,9056,2000
1406,Campo Bom,4303905,-29.674700000000,-51.060600000000,164222,2000
1407,Campo Novo,4304002,-27.679200000000,-53.805199999990,7330,2000
1408,Candelaria,4304200,-29.668399999990,-52.789499999990,33987,2000
1409,Candido Godai,4304309,-27.951499999990,-54.751700000000,10126,2000
1410,Candiota,4304358,-31.551500000000,-53.677300000000,66282,2000
1411,Canela,4304408,-29.356000000000,-50.811900000000,69673,2000
1412,Canguau,4304507,-31.396000000000,-52.678199999990,25551,2000
1413,Canoas,4304606,-29.912800000000,-51.185699999990,555438,2000
1414,Capao da Canoa,4304630,-29.639700000000,-49.959899999990,57411,2000
1415,Capao do Leao,4304663,-31.756499999990,-52.488900000000,37333,2000
1416,Capela de Santana,4304689,-29.696100000000,-51.328000000000,15023,2000
1417,Capivari do Sul,4304671,-30.138200000000,-50.515099999990,14637,2000
1418,Caraa,4304713,-29.786899999990,-50.431600000000,4179,2000
1419,Carazinho,4304705,-28.295800000000,-52.793300000000,110738,2000
1420,Carlos Barbosa,4304804,-29.296900000000,-51.502899999990,94676,2000
1421,Carlos Gomes,4304853,-27.716699999990,-51.912100000000,1064,2000
1422,Casca,4304903,-28.560500000000,-51.981499999990,16699,2000
1423,Caseiros,4304952,-28.258199999990,-51.686100000000,2274,2000
1424,Catuape,4305009,-28.255400000000,-54.013199999990,9437,2000
1425,Caxias do Sul,4305108,-29.162900000000,-51.179200000000,949279,2000
1426,Centenario,4305116,-27.761600000000,-51.998399999990,1771,2000
1427,Cerrito,4305124,-31.841899999990,-52.800400000000,4709,2000
1428,Cerro Branco,4305132,-29.657000000000,-52.940600000000,49,2000
1429,Cerro Grande,4305157,-27.610600000000,-53.167200000000,63,2000
1430,Cerro Grande do Sul,4305173,-30.590499999990,-51.741799999990,3920,2000
1431,Cerro Largo,4305207,-28.146200000000,-54.742800000000,26157,2000
1432,Charqueadas,4305355,-29.962500000000,-51.628900000000,314803,2000
1433,Charrua,4305371,-27.949300000000,-52.015000000000,793,2000
1434,Chiapetta,4305405,-27.922999999990,-53.941899999990,3779,2000
1435,Chua,4305439,-33.686599999990,-53.459400000000,11043,2000
1436,Chuvisca,4305447,-30.750399999990,-51.973700000000,2108,2000
1437,Cidreira,4305454,-30.160399999990,-50.233800000000,26440,2000
1438,Ciraaco,4305504,-28.341899999990,-51.874099999990,6763,2000
1439,Colinas,4305587,-29.381499999990,-51.852600000000,3536,2000
1440,Constantina,4305801,-27.731999999990,-52.993800000000,10729,2000
1441,Coronel Bicaco,4305900,-27.719700000000,-53.702199999990,6519,2000
1442,Cotipora,4305959,-28.989100000000,-51.697099999990,5070,2000
